[
  {
    "description": "01",
    "locationID": "286de869-cdea-462a-bc50-1da101ea9c33",
    "name": "BRZEZINY KOLONIA",
    "officialNumber": "0000000000662",
    "stopRadius": 50,
    "gpsLocation": {
      "type": "Point",
      "coordinates": [19.1014775633812, 50.7503355528749]
    }
  },
  {
    "description": "01",
    "locationID": "a5a5aa59-5a41-4c49-9b33-4bf15ec5c723",
    "name": "CMENTARZ MIRÓW",
    "officialNumber": "0000000000994",
    "stopRadius": 50,
    "gpsLocation": {
      "type": "Point",
      "coordinates": [19.2182341217995, 50.8210247416987]
    }
  },
  {
    "description": "01",
    "locationID": "69c1098c-78a0-4248-994b-62144bf1e447",
    "name": "DYBOWSKIEGO",
    "officialNumber": "0000000001026",
    "stopRadius": 50,
    "gpsLocation": {
      "type": "Point",
      "coordinates": [19.1412292420864, 50.8554885863882]
    }
  },
  {
    "description": "01",
    "locationID": "a7679f74-b1cb-4df1-822b-3808ed1d296e",
    "name": "OCZYSZCZALNIA WARTA",
    "officialNumber": "0000000001280",
    "stopRadius": 50,
    "gpsLocation": {
      "type": "Point",
      "coordinates": [19.1623529791832, 50.8220058305919]
    }
  },
  {
    "description": "01",
    "locationID": "2c223cc7-ced8-49b3-8db6-a8def86897e3",
    "name": "IWASZKIEWICZA",
    "officialNumber": "0000000000594",
    "stopRadius": 50,
    "gpsLocation": {
      "type": "Point",
      "coordinates": [19.120515, 50.836311]
    }
  },
  {
    "description": "02",
    "locationID": "c1d75cd6-1ff8-4474-9bd9-e8fb2dbbbc0c",
    "name": "ZAWODZIE - DŁUGA I",
    "officialNumber": "0000000000821",
    "stopRadius": 50,
    "gpsLocation": {
      "type": "Point",
      "coordinates": [19.1687151789665, 50.7140694363965]
    }
  },
  {
    "description": "04",
    "locationID": "e6e67f91-63e4-4284-b17f-68760d324e03",
    "name": "POLITECHNIKA",
    "officialNumber": "0000000000486",
    "stopRadius": 50,
    "gpsLocation": {
      "type": "Point",
      "coordinates": [19.117839038372, 50.8215246082184]
    }
  },
  {
    "description": "01",
    "locationID": "f4c56e77-65a6-4b9d-a8f9-f2f5a4daa2dc",
    "name": "PIŁSUDSKIEGO",
    "officialNumber": "0000000000480",
    "stopRadius": 50,
    "gpsLocation": {
      "type": "Point",
      "coordinates": [19.12233710289, 50.808263625356]
    }
  },
  {
    "description": "02",
    "locationID": "6818b760-f5b7-4945-b608-910981e87723",
    "name": "ROLNICZA - CMENTARZ KULE",
    "officialNumber": "0000000000519",
    "stopRadius": 50,
    "gpsLocation": {
      "type": "Point",
      "coordinates": [19.129875, 50.826325]
    }
  },
  {
    "description": "01",
    "locationID": "75e206de-4496-4ccd-9bfe-04e97c318cf3",
    "name": "ALEJA POKOJU",
    "officialNumber": "0000000001230",
    "stopRadius": 50,
    "gpsLocation": {
      "type": "Point",
      "coordinates": [19.1437223553658, 50.7848922567863]
    }
  },
  {
    "description": "04",
    "locationID": "f294b12e-324e-4478-8baf-4ed7e8302734",
    "name": "",
    "officialNumber": "0000000001165",
    "stopRadius": 0,
    "gpsLocation": {
      "type": "Point",
      "coordinates": [19.1131666302681, 50.8121067321282]
    }
  },
  {
    "description": "01",
    "locationID": "943eb2d7-b901-46b1-8200-f3c6300e4417",
    "name": "CMENTARZ ŚW. ROCHA",
    "officialNumber": "0000000000172",
    "stopRadius": 150,
    "gpsLocation": {
      "type": "Point",
      "coordinates": [19.0861581265926, 50.8176424533995]
    }
  },
  {
    "description": "01",
    "locationID": "6cc9b2ce-3e76-45b0-a020-a28cd7e297fc",
    "name": "--- zmiana taryfy biletowej ---",
    "officialNumber": "",
    "stopRadius": 50,
    "gpsLocation": null
  },
  {
    "description": "Jadwigi",
    "locationID": "9972c2fe-ff3d-4a1a-b2ce-79f4f0ab8910",
    "name": "",
    "officialNumber": "0000000000171",
    "stopRadius": 0,
    "gpsLocation": {
      "type": "Point",
      "coordinates": [19.0860642492771, 50.8176356750207]
    }
  },
  {
    "description": "03",
    "locationID": "5ed931f8-5e86-459c-81f6-b6567c3d31fc",
    "name": "DWORZEC PKS",
    "officialNumber": "0000000000202",
    "stopRadius": 50,
    "gpsLocation": {
      "type": "Point",
      "coordinates": [19.1178739070892, 50.8049380447393]
    }
  },
  {
    "description": "Ikara",
    "locationID": "ca63b86d-4b77-480f-897a-78736cf0dfde",
    "name": "",
    "officialNumber": "0000000000639",
    "stopRadius": 0,
    "gpsLocation": {
      "type": "Point",
      "coordinates": [19.0662279725075, 50.8577803045621]
    }
  },
  {
    "description": "01",
    "locationID": "f1110660-88ec-4bbc-ad20-55b8196b88b3",
    "name": "HUTA STARA \"B\"",
    "officialNumber": "0000000000689",
    "stopRadius": 50,
    "gpsLocation": {
      "type": "Point",
      "coordinates": [19.1299840807915, 50.7331108659545]
    }
  },
  {
    "description": "03",
    "locationID": "d6f54bf6-2cb7-46a3-9e63-a56ee418fa7a",
    "name": "BACZYŃSKIEGO",
    "officialNumber": "0000000000122",
    "stopRadius": 50,
    "gpsLocation": {
      "type": "Point",
      "coordinates": [19.1269129514694, 50.8388658151967]
    }
  },
  {
    "description": "03",
    "locationID": "e7229c04-9463-46a3-9e55-1fa3fb201a90",
    "name": "ESTAKADA",
    "officialNumber": "0000000000008",
    "stopRadius": 50,
    "gpsLocation": {
      "type": "Point",
      "coordinates": [19.1427621245384, 50.7853187441925]
    }
  },
  {
    "description": "02",
    "locationID": "4bc31a36-9b6b-409f-85d1-597fdd2e9264",
    "name": "KUSIĘTA SKLEP",
    "officialNumber": "0000000000704",
    "stopRadius": 50,
    "gpsLocation": {
      "type": "Point",
      "coordinates": [19.2497393488884, 50.7745833052917]
    }
  },
  {
    "description": "01",
    "locationID": "f9deaa3b-3dcf-4b20-83fb-bfeb1f398829",
    "name": "SŁOWIK - PRZEJAZD",
    "officialNumber": "0000000001091",
    "stopRadius": 50,
    "gpsLocation": {
      "type": "Point",
      "coordinates": [19.1748762130737, 50.7499469300701]
    }
  },
  {
    "description": "01",
    "locationID": "4af5957c-8247-4294-8d95-21e756837a19",
    "name": "BATALIONÓW CHŁOPSKICH",
    "officialNumber": "0000000001127",
    "stopRadius": 50,
    "gpsLocation": {
      "type": "Point",
      "coordinates": [19.1949927806854, 50.8364960947807]
    }
  },
  {
    "description": "02",
    "locationID": "f7e3ae57-c269-4889-85a2-301e79610ea1",
    "name": "POCZESNA - STRAŻACKA",
    "officialNumber": "0000000000785",
    "stopRadius": 50,
    "gpsLocation": {
      "type": "Point",
      "coordinates": [19.158892929554, 50.7160326880586]
    }
  },
  {
    "description": "01",
    "locationID": "8aedd0a3-ce45-4e94-92f0-0a996c54cb2f",
    "name": "ŚW. ROCHA - SZKOŁA",
    "officialNumber": "0000000000516",
    "stopRadius": 50,
    "gpsLocation": {
      "type": "Point",
      "coordinates": [19.0649405121803, 50.8337501853208]
    }
  },
  {
    "description": "02",
    "locationID": "b3612c9f-1ca5-4649-ae5e-c295502cad84",
    "name": "",
    "officialNumber": "0000000001265",
    "stopRadius": 0,
    "gpsLocation": {
      "type": "Point",
      "coordinates": [19.2597010731697, 50.8179025729437]
    }
  },
  {
    "description": "02",
    "locationID": "6621388f-b0aa-4c76-bc5f-9c177d1be99e",
    "name": "KUSIĘTA SZKOŁA",
    "officialNumber": "0000000000706",
    "stopRadius": 50,
    "gpsLocation": {
      "type": "Point",
      "coordinates": [19.2584216594696, 50.7762726467432]
    }
  },
  {
    "description": "03",
    "locationID": "5053c0ba-f9a9-4669-bcad-6aa435befd04",
    "name": "WIELKOBORSKA - PRZYCHODNIA",
    "officialNumber": "0000000001349",
    "stopRadius": 50,
    "gpsLocation": {
      "type": "Point",
      "coordinates": [19.0545120835304, 50.8190989347315]
    }
  },
  {
    "description": "02",
    "locationID": "98176420-d6ba-4f4a-bd9d-2b9c33cf790d",
    "name": "SCHILLERA",
    "officialNumber": "0000000000549",
    "stopRadius": 50,
    "gpsLocation": null
  },
  {
    "description": "03",
    "locationID": "844107a8-102c-41eb-836e-22ad10174156",
    "name": "",
    "officialNumber": "0000000001337",
    "stopRadius": 0,
    "gpsLocation": {
      "type": "Point",
      "coordinates": [19.2067328095436, 50.8151462488668]
    }
  },
  {
    "description": "02",
    "locationID": "cb30887f-e557-4ebd-b68f-cab4015212e3",
    "name": "MIRÓW",
    "officialNumber": "0000000001157",
    "stopRadius": 50,
    "gpsLocation": {
      "type": "Point",
      "coordinates": [19.203094, 50.819628]
    }
  },
  {
    "description": "00",
    "locationID": "2cd8d8f0-1a9e-460b-95ef-6662daf2752f",
    "name": "Zajezdnia Autobusowa Niepodległości",
    "officialNumber": "0000000001248",
    "stopRadius": 50,
    "gpsLocation": null
  },
  {
    "description": "02",
    "locationID": "249a89f5-676b-4654-8d54-49e3f2c6a00a",
    "name": "FILTROWA",
    "officialNumber": "0000000000218",
    "stopRadius": 50,
    "gpsLocation": {
      "type": "Point",
      "coordinates": [19.1812786459923, 50.8166790664417]
    }
  },
  {
    "description": "01",
    "locationID": "b21bd77e-a638-4b54-a642-cbbb84d6b101",
    "name": "WIELKOBORSKA",
    "officialNumber": "0000000000973",
    "stopRadius": 100,
    "gpsLocation": {
      "type": "Point",
      "coordinates": [19.0358278155327, 50.8166816083859]
    }
  },
  {
    "description": "03",
    "locationID": "3243c09c-07ec-4689-9ac4-9f84742a8129",
    "name": "PLAC BIEGAŃSKIEGO",
    "officialNumber": "0000000000839",
    "stopRadius": 50,
    "gpsLocation": {
      "type": "Point",
      "coordinates": [19.1140034794807, 50.812466874773]
    }
  },
  {
    "description": "01",
    "locationID": "d1ec1b81-96dd-4bdf-ba79-c9d894eb3a16",
    "name": "KRĘCIWILK",
    "officialNumber": "0000000000348",
    "stopRadius": 50,
    "gpsLocation": {
      "type": "Point",
      "coordinates": [19.1827813535929, 50.7634971843776]
    }
  },
  {
    "description": "01",
    "locationID": "64defbae-46c8-4664-8bf5-91b2fcc85603",
    "name": "DWORZEC PKS",
    "officialNumber": "0000000000053",
    "stopRadius": 50,
    "gpsLocation": {
      "type": "Point",
      "coordinates": [19.1183325648308, 50.8058686209663]
    }
  },
  {
    "description": "01",
    "locationID": "3fc842eb-ff30-4953-a9c8-37a400d8e58a",
    "name": "WRZOSOWA - KŁADKA",
    "officialNumber": "0000000000806",
    "stopRadius": 50,
    "gpsLocation": {
      "type": "Point",
      "coordinates": [19.1532307863235, 50.7468191626943]
    }
  },
  {
    "description": "01",
    "locationID": "46973d5f-2609-46d5-a46a-33dc3f140633",
    "name": "MAZURY I",
    "officialNumber": "0000000000716",
    "stopRadius": 50,
    "gpsLocation": {
      "type": "Point",
      "coordinates": [19.087295383215, 50.7214999784467]
    }
  },
  {
    "description": "01",
    "locationID": "3b348312-600b-4d60-bff3-532d7c4a23f0",
    "name": "IKARA III",
    "officialNumber": "0000000000270",
    "stopRadius": 50,
    "gpsLocation": {
      "type": "Point",
      "coordinates": [19.0648721158504, 50.8537030507737]
    }
  },
  {
    "description": "03",
    "locationID": "899de426-6917-4d91-a8f6-fec76327c8de",
    "name": "",
    "officialNumber": "0000000000388",
    "stopRadius": 0,
    "gpsLocation": {
      "type": "Point",
      "coordinates": [19.0772370994091, 50.7549258095636]
    }
  },
  {
    "description": "01",
    "locationID": "29051d00-aa01-456d-bc93-8534c7826282",
    "name": "HUTNIKÓW",
    "officialNumber": "0000000000252",
    "stopRadius": 50,
    "gpsLocation": {
      "type": "Point",
      "coordinates": [19.156014919281, 50.7952684474593]
    }
  },
  {
    "description": "05",
    "locationID": "3ec3307e-2bb0-4d48-9768-b86d478bb44e",
    "name": "DĄBIE",
    "officialNumber": "0000000000223",
    "stopRadius": 50,
    "gpsLocation": {
      "type": "Point",
      "coordinates": [19.1602018475533, 50.793086408568]
    }
  },
  {
    "description": "02",
    "locationID": "0ae3975a-9896-4a4b-8bcf-8559d0a09900",
    "name": "POCZESNA - BOREK",
    "officialNumber": "0000000000788",
    "stopRadius": 50,
    "gpsLocation": {
      "type": "Point",
      "coordinates": [19.1545557975769, 50.7029524165698]
    }
  },
  {
    "description": "02",
    "locationID": "7e618420-09b4-4987-8a78-87d476f8d6d8",
    "name": "JESIENNA",
    "officialNumber": "0000000000278",
    "stopRadius": 50,
    "gpsLocation": {
      "type": "Point",
      "coordinates": [19.141693264246, 50.7701934460504]
    }
  },
  {
    "description": "04",
    "locationID": "7e182190-3afe-471d-a97d-de62753e5174",
    "name": "ZAJEZDNIA MPK",
    "officialNumber": "0000000001170",
    "stopRadius": 50,
    "gpsLocation": {
      "type": "Point",
      "coordinates": [19.1356522589922, 50.7870394923335]
    }
  },
  {
    "description": "01",
    "locationID": "c8eaee95-bbf3-4190-9e6c-231893103e2f",
    "name": "NAŁKOWSKIEGO",
    "officialNumber": "0000000001284",
    "stopRadius": 50,
    "gpsLocation": {
      "type": "Point",
      "coordinates": [19.1572192311287, 50.8441646437642]
    }
  },
  {
    "description": "01",
    "locationID": "abbd0fa8-b7b6-41d0-a4e7-58ae5de4cb1b",
    "name": "ŚW. BARBARY - SZPITAL",
    "officialNumber": "0000000000575",
    "stopRadius": 50,
    "gpsLocation": {
      "type": "Point",
      "coordinates": [19.09513682127, 50.8058431956326]
    }
  },
  {
    "description": "04",
    "locationID": "3f044bc3-f5bd-42bf-a309-8690fbff2a98",
    "name": "RAKOWSKA",
    "officialNumber": "0000000001184",
    "stopRadius": 50,
    "gpsLocation": {
      "type": "Point",
      "coordinates": [19.1548602283001, 50.7720915848957]
    }
  },
  {
    "description": "01",
    "locationID": "151d9dcc-8088-448c-90a5-f94536b08063",
    "name": "MIRÓW",
    "officialNumber": "0000000000421",
    "stopRadius": 50,
    "gpsLocation": {
      "type": "Point",
      "coordinates": [19.202207, 50.818881]
    }
  },
  {
    "description": "03",
    "locationID": "f1265060-b05f-45eb-a69a-c7fe9f5eca16",
    "name": "ZAJEZDNIA MPK",
    "officialNumber": "0000000001169",
    "stopRadius": 50,
    "gpsLocation": {
      "type": "Point",
      "coordinates": [19.1357119381428, 50.7870534818962]
    }
  },
  {
    "description": "01",
    "locationID": "8fef6bcd-4852-40ab-bd47-b81a255e1500",
    "name": "ŻABINIEC",
    "officialNumber": "0000000000640",
    "stopRadius": 50,
    "gpsLocation": {
      "type": "Point",
      "coordinates": [19.0661099553108, 50.857710039295]
    }
  },
  {
    "description": "01",
    "locationID": "776ced7e-ef06-4490-bd84-5bc928a65d84",
    "name": "PORAZIŃSKIEJ",
    "officialNumber": "0000000001074",
    "stopRadius": 50,
    "gpsLocation": {
      "type": "Point",
      "coordinates": [19.1539335250854, 50.8460690940722]
    }
  },
  {
    "description": "03",
    "locationID": "9ff1b0a3-a67f-4eaf-a183-c65f41e1e9cf",
    "name": "",
    "officialNumber": "0000000001333",
    "stopRadius": 0,
    "gpsLocation": {
      "type": "Point",
      "coordinates": [19.2202350497246, 50.8124617904256]
    }
  },
  {
    "description": "01",
    "locationID": "003e1b39-3bd0-4f01-add1-4c9f1b000e7b",
    "name": "STREFOWA I",
    "officialNumber": "0000000001357",
    "stopRadius": 50,
    "gpsLocation": {
      "type": "Point",
      "coordinates": [19.1704478859901, 50.8094059975038]
    }
  },
  {
    "description": "01",
    "locationID": "cb24fb19-b5cc-489b-93fe-642ca14da058",
    "name": "MARKET OBI",
    "officialNumber": "0000000000399",
    "stopRadius": 50,
    "gpsLocation": {
      "type": "Point",
      "coordinates": [19.1047766804695, 50.8235189376421]
    }
  },
  {
    "description": "02",
    "locationID": "90900a21-c0de-4b21-9052-909116ee727f",
    "name": "JASNA GÓRA",
    "officialNumber": "0000000000277",
    "stopRadius": 50,
    "gpsLocation": {
      "type": "Point",
      "coordinates": [19.0966254472733, 50.8100076808007]
    }
  },
  {
    "description": "01",
    "locationID": "63a9509f-6095-434b-bd1c-2ac7fb25b94c",
    "name": "GAZOWNIA",
    "officialNumber": "0000000000043",
    "stopRadius": 50,
    "gpsLocation": {
      "type": "Point",
      "coordinates": [19.1715422272682, 50.8090314245514]
    }
  },
  {
    "description": "01",
    "locationID": "8f4a6e19-e6c5-4b17-9d72-f608dbf7b7b7",
    "name": "JURANDA",
    "officialNumber": "0000000000653",
    "stopRadius": 50,
    "gpsLocation": {
      "type": "Point",
      "coordinates": [19.082900583744, 50.7705411894926]
    }
  },
  {
    "description": "02",
    "locationID": "e5ecc237-695d-4b19-a426-270254ce5d95",
    "name": "KAWODRZAŃSKA",
    "officialNumber": "0000000000297",
    "stopRadius": 50,
    "gpsLocation": {
      "type": "Point",
      "coordinates": [19.0790355205536, 50.7861869689582]
    }
  },
  {
    "description": "02",
    "locationID": "db370b9f-a722-47f7-91a3-7f692cfa97ab",
    "name": "ZŁOTA GÓRA II",
    "officialNumber": "0000000001217",
    "stopRadius": 50,
    "gpsLocation": {
      "type": "Point",
      "coordinates": [19.1654066741467, 50.8156063536219]
    }
  },
  {
    "description": "02",
    "locationID": "6ee01281-605f-4f16-a2d6-5f9927fb0102",
    "name": "FIELDORFA-NILA",
    "officialNumber": "0000000000070",
    "stopRadius": 50,
    "gpsLocation": {
      "type": "Point",
      "coordinates": [19.1296388888889, 50.8398888888889]
    }
  },
  {
    "description": "02",
    "locationID": "4172ebe6-3968-41fd-8b57-aaf4a46a77c8",
    "name": "DYBOWSKIEGO",
    "officialNumber": "0000000001027",
    "stopRadius": 50,
    "gpsLocation": {
      "type": "Point",
      "coordinates": [19.1422230005264, 50.8546360418745]
    }
  },
  {
    "description": "02",
    "locationID": "32325fe9-9b77-4013-a2bc-ab8cafa55058",
    "name": "JEŻYNOWA",
    "officialNumber": "0000000000280",
    "stopRadius": 50,
    "gpsLocation": {
      "type": "Point",
      "coordinates": [19.0321089327335, 50.7886313081404]
    }
  },
  {
    "description": "02",
    "locationID": "9801b2a1-1d69-4733-9dd9-495f33fa74d8",
    "name": "SKWER SOKOŁÓW",
    "officialNumber": "0000000000027",
    "stopRadius": 50,
    "gpsLocation": {
      "type": "Point",
      "coordinates": [19.1054284572601, 50.8053736719836]
    }
  },
  {
    "description": "03",
    "locationID": "6a795483-8400-4a89-88c4-b87f3c7a5413",
    "name": "DWORZEC GŁÓWNY PKP",
    "officialNumber": "0000000000049",
    "stopRadius": 100,
    "gpsLocation": {
      "type": "Point",
      "coordinates": [19.1189816594124, 50.8073729285804]
    }
  },
  {
    "description": "03",
    "locationID": "e3d7189d-5a56-4616-9eb6-9ac8a8c1dfb6",
    "name": "GRABÓWKA",
    "officialNumber": "0000000001253",
    "stopRadius": 100,
    "gpsLocation": {
      "type": "Point",
      "coordinates": [19.0601621568203, 50.8368797638984]
    }
  },
  {
    "description": "02",
    "locationID": "35f20253-6311-4bf5-84d3-ea12eee1f7f2",
    "name": "STERNICZA",
    "officialNumber": "0000000000343",
    "stopRadius": 50,
    "gpsLocation": {
      "type": "Point",
      "coordinates": [19.1048222780228, 50.7563002535636]
    }
  },
  {
    "description": "01",
    "locationID": "bc8d5d29-9c34-420a-8689-4da059afdfa5",
    "name": "BUGAJSKA",
    "officialNumber": "0000000000147",
    "stopRadius": 50,
    "gpsLocation": {
      "type": "Point",
      "coordinates": [19.1641527414322, 50.7676183678249]
    }
  },
  {
    "description": "02",
    "locationID": "1c4963d7-0af4-4e29-bdd6-1b30e842de15",
    "name": "WEYSSENHOFF",
    "officialNumber": "0000000000606",
    "stopRadius": 50,
    "gpsLocation": {
      "type": "Point",
      "coordinates": [19.1784381866455, 50.7650058247817]
    }
  },
  {
    "description": "06",
    "locationID": "7bdbaac5-830f-4b69-b1b5-4ac73dc418f0",
    "name": "ALEJA JANA PAWŁA II",
    "officialNumber": "0000000001014",
    "stopRadius": 50,
    "gpsLocation": {
      "type": "Point",
      "coordinates": [19.1181743144989, 50.8169679998848]
    }
  },
  {
    "description": "StradomSokola",
    "locationID": "0d47b8aa-ccf5-4a51-8ebf-6012effd3341",
    "name": "",
    "officialNumber": "0000000000293",
    "stopRadius": 0,
    "gpsLocation": {
      "type": "Point",
      "coordinates": [19.0450774133205, 50.7842609974112]
    }
  },
  {
    "description": "01",
    "locationID": "36f752d4-2377-4549-8c7c-2cdee76425ca",
    "name": "JESIENNA - SZKOŁA",
    "officialNumber": "0000000000029",
    "stopRadius": 50,
    "gpsLocation": {
      "type": "Point",
      "coordinates": [19.1457018256187, 50.7697914174832]
    }
  },
  {
    "description": "01",
    "locationID": "7437f9e6-af62-4bc4-b0a0-5e3d72f6860a",
    "name": "CYRKLOWA",
    "officialNumber": "0000000001355",
    "stopRadius": 50,
    "gpsLocation": {
      "type": "Point",
      "coordinates": [19.0462790429592, 50.8121796082757]
    }
  },
  {
    "description": "02",
    "locationID": "121d1061-67cc-4ae2-8680-8e614d5636de",
    "name": "DROGOWCÓW - RONDO",
    "officialNumber": "0000000001271",
    "stopRadius": 50,
    "gpsLocation": {
      "type": "Point",
      "coordinates": [19.1421881318092, 50.8207146523208]
    }
  },
  {
    "description": "04",
    "locationID": "f5504936-7b1e-416f-9505-c123fe82dd99",
    "name": "SREBRNA",
    "officialNumber": "",
    "stopRadius": 50,
    "gpsLocation": {
      "type": "Point",
      "coordinates": [19.1443365812302, 50.8140853639067]
    }
  },
  {
    "description": "01",
    "locationID": "302e5b8f-a5cf-474e-8e67-ad789bc65356",
    "name": "HUBERMANA",
    "officialNumber": "0000000000248",
    "stopRadius": 50,
    "gpsLocation": {
      "type": "Point",
      "coordinates": [19.1548052430153, 50.8365553816054]
    }
  },
  {
    "description": "04",
    "locationID": "5f4a5c9c-a992-4e22-b2de-e7695367423b",
    "name": "",
    "officialNumber": "0000000000456",
    "stopRadius": 0,
    "gpsLocation": {
      "type": "Point",
      "coordinates": [19.0930889546871, 50.8250552926406]
    }
  },
  {
    "description": "05",
    "locationID": "845e230b-5e61-4cbb-bf22-1c1e59b334f2",
    "name": "- granica- gm. POCZESNA",
    "officialNumber": "",
    "stopRadius": 50,
    "gpsLocation": null
  },
  {
    "description": "02",
    "locationID": "e389615b-6eb1-49bb-8562-fbe5e514d4e0",
    "name": "CYRKLOWA",
    "officialNumber": "0000000001356",
    "stopRadius": 50,
    "gpsLocation": {
      "type": "Point",
      "coordinates": [19.0461060404778, 50.8124126417053]
    }
  },
  {
    "description": "04",
    "locationID": "7e30d6e5-9802-4a65-96f7-522415f8558f",
    "name": "FIELDORFA-NILA",
    "officialNumber": "0000000000216",
    "stopRadius": 50,
    "gpsLocation": {
      "type": "Point",
      "coordinates": [19.132319, 50.840114]
    }
  },
  {
    "description": "04",
    "locationID": "b6364f8f-7cb5-4276-80f3-f0e0958dcdf1",
    "name": "KASZTANOWA",
    "officialNumber": "0000000001180",
    "stopRadius": 50,
    "gpsLocation": {
      "type": "Point",
      "coordinates": [19.1358621418476, 50.7826698807296]
    }
  },
  {
    "description": "Modrzewiowa",
    "locationID": "0b125878-916c-40b2-a1a2-727308e083cf",
    "name": "",
    "officialNumber": "0000000000776",
    "stopRadius": 0,
    "gpsLocation": {
      "type": "Point",
      "coordinates": [19.1553322970867, 50.7141135934797]
    }
  },
  {
    "description": "02",
    "locationID": "fe281f3e-0971-46f3-ae37-8b41d935e88e",
    "name": "WSPÓLNA",
    "officialNumber": "0000000000013",
    "stopRadius": 50,
    "gpsLocation": {
      "type": "Point",
      "coordinates": [19.1498994827271, 50.8075856464805]
    }
  },
  {
    "description": "02",
    "locationID": "58b16ce0-6de4-4908-a939-decc5c4838f2",
    "name": "POLONTEX",
    "officialNumber": "0000000000488",
    "stopRadius": 50,
    "gpsLocation": {
      "type": "Point",
      "coordinates": [19.1418179869652, 50.7937128862583]
    }
  },
  {
    "description": "03",
    "locationID": "49a2e728-1836-42b0-bf69-4126bc73a768",
    "name": "LEŚNA",
    "officialNumber": "0000000000965",
    "stopRadius": 50,
    "gpsLocation": {
      "type": "Point",
      "coordinates": [19.0246979892254, 50.7621878469666]
    }
  },
  {
    "description": "01",
    "locationID": "cbbe0c11-0ae8-42af-91e7-8a501166f570",
    "name": "ZAWODZIE - DŁUGA I",
    "officialNumber": "0000000000820",
    "stopRadius": 50,
    "gpsLocation": {
      "type": "Point",
      "coordinates": [19.1682980954647, 50.7137934536839]
    }
  },
  {
    "description": "02",
    "locationID": "8b64a3fd-31f4-493e-b94f-93111e642421",
    "name": "MARYNARSKA",
    "officialNumber": "0000000000405",
    "stopRadius": 50,
    "gpsLocation": {
      "type": "Point",
      "coordinates": [19.0232402086258, 50.7883896778055]
    }
  },
  {
    "description": "01",
    "locationID": "7cdb610f-9323-4f44-9a4e-d24734c18463",
    "name": "MŁYNEK",
    "officialNumber": "0000000000720",
    "stopRadius": 50,
    "gpsLocation": {
      "type": "Point",
      "coordinates": [19.084779471159, 50.7248824335296]
    }
  },
  {
    "description": "04",
    "locationID": "fe902a5f-17f5-4418-871e-45b865449830",
    "name": "STADION RAKÓW",
    "officialNumber": "0000000001185",
    "stopRadius": 50,
    "gpsLocation": {
      "type": "Point",
      "coordinates": [19.1583082079887, 50.7758367482138]
    }
  },
  {
    "description": "01",
    "locationID": "916d2b27-2349-4398-9e9a-27360c1e0eec",
    "name": "RYNEK WIELUŃSKI",
    "officialNumber": "0000000000529",
    "stopRadius": 50,
    "gpsLocation": {
      "type": "Point",
      "coordinates": [19.096046090126, 50.8164223293604]
    }
  },
  {
    "description": "04",
    "locationID": "39fed924-64f1-487b-a059-18582d08d2fe",
    "name": "POCZESNA - POŁUDNIOWA",
    "officialNumber": "0000000000834",
    "stopRadius": 50,
    "gpsLocation": {
      "type": "Point",
      "coordinates": [19.1334803402424, 50.7141373703535]
    }
  },
  {
    "description": "01",
    "locationID": "22b23cf1-5938-4b75-a7c7-bbe9f63f30bd",
    "name": "ZAJEZDNIA MPK",
    "officialNumber": "0000000000093",
    "stopRadius": 50,
    "gpsLocation": {
      "type": "Point",
      "coordinates": [19.1359607130289, 50.7870844284899]
    }
  },
  {
    "description": "02",
    "locationID": "726f1586-3be3-4d87-8f6e-83f5a47b921f",
    "name": "POCZESNA - SZKOŁA",
    "officialNumber": "0000000000787",
    "stopRadius": 50,
    "gpsLocation": {
      "type": "Point",
      "coordinates": [19.1542258858681, 50.7131370328879]
    }
  },
  {
    "description": "02",
    "locationID": "a0e1f893-d84a-41e3-83f3-6ddefda8d6e6",
    "name": "HUTA STARA \"A\"",
    "officialNumber": "0000000000685",
    "stopRadius": 50,
    "gpsLocation": {
      "type": "Point",
      "coordinates": [19.1271275281906, 50.7259767548959]
    }
  },
  {
    "description": "01",
    "locationID": "5ec40c4a-d09f-4a65-8e1a-c6e6ea509204",
    "name": "OLSZTYN - NAPOLEONA",
    "officialNumber": "0000000001008",
    "stopRadius": 50,
    "gpsLocation": {
      "type": "Point",
      "coordinates": [19.2673400044441, 50.7453731572798]
    }
  },
  {
    "description": "01",
    "locationID": "a927c463-4a38-4e78-8afa-22af994409e2",
    "name": "KANAŁ KOHNA",
    "officialNumber": "0000000001022",
    "stopRadius": 50,
    "gpsLocation": {
      "type": "Point",
      "coordinates": [19.1312044858933, 50.8032048182958]
    }
  },
  {
    "description": "01",
    "locationID": "bad5828c-1bf0-4828-b97a-8bbb42fc99e7",
    "name": "STREFOWA III",
    "officialNumber": "0000000001361",
    "stopRadius": 50,
    "gpsLocation": {
      "type": "Point",
      "coordinates": [19.1660705208778, 50.8110873015406]
    }
  },
  {
    "description": "02",
    "locationID": "d4188b43-3280-4acf-9c35-e90def8830df",
    "name": "OSTATNI GROSZ",
    "officialNumber": "0000000000061",
    "stopRadius": 50,
    "gpsLocation": {
      "type": "Point",
      "coordinates": [19.1267868876457, 50.7936086151819]
    }
  },
  {
    "description": "02",
    "locationID": "9b61db69-1dbe-4c07-9050-86e0eebd0e25",
    "name": "KONIECPOLSKA",
    "officialNumber": "0000000000317",
    "stopRadius": 50,
    "gpsLocation": {
      "type": "Point",
      "coordinates": [19.0505746006966, 50.8189472730002]
    }
  },
  {
    "description": "02",
    "locationID": "9a936a45-99bc-432d-b09d-a50d7b8d58ca",
    "name": "",
    "officialNumber": "0000000000475",
    "stopRadius": 0,
    "gpsLocation": {
      "type": "Point",
      "coordinates": [19.0899977087975, 50.8311904659953]
    }
  },
  {
    "description": "01",
    "locationID": "9b87faba-1f81-4b13-9e44-ac09c640afa4",
    "name": "BACEWICZ",
    "officialNumber": "0000000000120",
    "stopRadius": 50,
    "gpsLocation": {
      "type": "Point",
      "coordinates": [19.129, 50.8423]
    }
  },
  {
    "description": "03",
    "locationID": "12ef2457-3845-4e03-b291-64eb21d2f086",
    "name": "",
    "officialNumber": "0000000000392",
    "stopRadius": 0,
    "gpsLocation": {
      "type": "Point",
      "coordinates": [19.0771740674973, 50.7440272459149]
    }
  },
  {
    "description": "04",
    "locationID": "6ed04f8e-1030-41ee-b33e-746b277cd695",
    "name": "DOMY STUDENCKIE",
    "officialNumber": "0000000000917",
    "stopRadius": 50,
    "gpsLocation": {
      "type": "Point",
      "coordinates": [19.1127844154835, 50.825127725003]
    }
  },
  {
    "description": "01",
    "locationID": "4d553ea0-3714-43fb-ad5c-e9010702e42f",
    "name": "POLSKIEGO CZERWONEGO KRZYŻA ",
    "officialNumber": "0000000000078",
    "stopRadius": 50,
    "gpsLocation": {
      "type": "Point",
      "coordinates": [19.1158086061478, 50.8301977111263]
    }
  },
  {
    "description": "02",
    "locationID": "7e750afb-a1df-49fb-bc2d-ed0d686b232a",
    "name": "RONDO TRZECH KRZYŻY",
    "officialNumber": "0000000000522",
    "stopRadius": 50,
    "gpsLocation": {
      "type": "Point",
      "coordinates": [19.1281950473785, 50.8177458235548]
    }
  },
  {
    "description": "01",
    "locationID": "80e37561-9874-443b-addf-d89e5bd5b829",
    "name": "BUSOLOWA II",
    "officialNumber": "0000000000156",
    "stopRadius": 50,
    "gpsLocation": {
      "type": "Point",
      "coordinates": [19.0406826138496, 50.7774327615556]
    }
  },
  {
    "description": "01",
    "locationID": "c50ccd8a-c574-48b3-abb8-96d2fc1c0640",
    "name": "NOWA WIEŚ - SKRZYŻOWANIE",
    "officialNumber": "0000000000737",
    "stopRadius": 50,
    "gpsLocation": {
      "type": "Point",
      "coordinates": [19.1643404960632, 50.7320226531732]
    }
  },
  {
    "description": "01",
    "locationID": "3b1b8c9e-a090-4d0a-baa0-3a9e24296873",
    "name": "",
    "officialNumber": "0000000001306",
    "stopRadius": 0,
    "gpsLocation": {
      "type": "Point",
      "coordinates": [19.2247787117958, 50.8117931939176]
    }
  },
  {
    "description": "01",
    "locationID": "3a49c10a-7a66-4c65-8424-5a218cac6f0d",
    "name": "OLSZTYN - ŻWIRKI I WIGURY",
    "officialNumber": "0000000000998",
    "stopRadius": 50,
    "gpsLocation": {
      "type": "Point",
      "coordinates": [19.25895139575, 50.7532679388382]
    }
  },
  {
    "description": "02",
    "locationID": "1bdd7193-4248-463a-8500-128b6a56f8f9",
    "name": "D.H. SEZAM",
    "officialNumber": "0000000000505",
    "stopRadius": 50,
    "gpsLocation": {
      "type": "Point",
      "coordinates": [19.1415350139141, 50.7831447200464]
    }
  },
  {
    "description": "02",
    "locationID": "0815ca35-49cb-4f8e-89e8-50b58dbebd98",
    "name": "LUDOWA",
    "officialNumber": "0000000000376",
    "stopRadius": 50,
    "gpsLocation": {
      "type": "Point",
      "coordinates": [19.108008, 50.846962]
    }
  },
  {
    "description": "01",
    "locationID": "c632e1e9-9056-4c9b-a6be-09bca91e5d56",
    "name": "BERGER",
    "officialNumber": "0000000000045",
    "stopRadius": 50,
    "gpsLocation": {
      "type": "Point",
      "coordinates": [19.1917, 50.8011]
    }
  },
  {
    "description": "Przysieczna",
    "locationID": "6e253df4-39d2-455d-8abd-871e08d4d63d",
    "name": "",
    "officialNumber": "0000000000800",
    "stopRadius": 0,
    "gpsLocation": {
      "type": "Point",
      "coordinates": [19.0085953474045, 50.8129473431073]
    }
  },
  {
    "description": "01",
    "locationID": "cd99faff-9adc-41e9-b799-984d9be28bf4",
    "name": "KORDECKIEGO",
    "officialNumber": "0000000000335",
    "stopRadius": 50,
    "gpsLocation": {
      "type": "Point",
      "coordinates": [19.0820833333333, 50.808]
    }
  },
  {
    "description": "01",
    "locationID": "f8640ea4-f081-4bfa-99b4-7789cc2a9707",
    "name": "LWOWSKA",
    "officialNumber": "0000000000367",
    "stopRadius": 50,
    "gpsLocation": {
      "type": "Point",
      "coordinates": [19.0585890412331, 50.8063194945852]
    }
  },
  {
    "description": "01",
    "locationID": "afc3475d-4b9d-483b-b6dc-714d8bc4c361",
    "name": "WSPÓLNA",
    "officialNumber": "0000000000040",
    "stopRadius": 50,
    "gpsLocation": {
      "type": "Point",
      "coordinates": [19.1487541794777, 50.8079788754267]
    }
  },
  {
    "description": "02",
    "locationID": "3349df37-595f-427e-afd2-5193e30429ef",
    "name": "SPÓŁDZIELCZOŚCI",
    "officialNumber": "0000000000207",
    "stopRadius": 50,
    "gpsLocation": {
      "type": "Point",
      "coordinates": [19.0415851771832, 50.7944249751953]
    }
  },
  {
    "description": "02",
    "locationID": "bdfe788a-8b00-45d0-b218-c85e8cdfe588",
    "name": "JAGIELLOŃSKA",
    "officialNumber": "0000000000273",
    "stopRadius": 50,
    "gpsLocation": {
      "type": "Point",
      "coordinates": [19.1107633709908, 50.7880556324086]
    }
  },
  {
    "description": "01",
    "locationID": "abfb4d16-3df0-4bf8-9836-18c90a3c94d5",
    "name": "RZĄSAWSKA",
    "officialNumber": "0000000000535",
    "stopRadius": 50,
    "gpsLocation": {
      "type": "Point",
      "coordinates": [19.162385, 50.846582]
    }
  },
  {
    "description": "02",
    "locationID": "bcdd7ec4-dc31-4e6b-905f-30952687d91d",
    "name": "WICHROWA I",
    "officialNumber": "0000000001366",
    "stopRadius": 50,
    "gpsLocation": {
      "type": "Point",
      "coordinates": [19.0493327379227, 50.8051939974256]
    }
  },
  {
    "description": "02",
    "locationID": "0fc7850b-ac89-46ac-888d-033bca1c0aaf",
    "name": "MSTOWSKA",
    "officialNumber": "0000000000433",
    "stopRadius": 50,
    "gpsLocation": {
      "type": "Point",
      "coordinates": [19.2101150751114, 50.8211602992498]
    }
  },
  {
    "description": "01",
    "locationID": "99ed43d0-c87b-427c-a146-34f5e4f0b69d",
    "name": "SPÓŁDZIELCZOŚCI",
    "officialNumber": "0000000000208",
    "stopRadius": 50,
    "gpsLocation": {
      "type": "Point",
      "coordinates": [19.0410795807838, 50.7944037822288]
    }
  },
  {
    "description": "04",
    "locationID": "e7dc57fa-b33e-4ae0-ba9f-293549710455",
    "name": "STARY RYNEK",
    "officialNumber": "",
    "stopRadius": 50,
    "gpsLocation": {
      "type": "Point",
      "coordinates": [19.12825, 50.8126111]
    }
  },
  {
    "description": "Wyczerpy-AniołówBatalionów Chłopskich",
    "locationID": "72925ef2-7fc7-4390-9a0d-1347eb51c648",
    "name": "",
    "officialNumber": "0000000000124",
    "stopRadius": 0,
    "gpsLocation": {
      "type": "Point",
      "coordinates": [19.1953562200069, 50.8362462423349]
    }
  },
  {
    "description": "01",
    "locationID": "3108dd9f-d26e-4d0e-8b77-2ab5deb4529f",
    "name": "CYGANOWSKIEGO",
    "officialNumber": "0000000000126",
    "stopRadius": 100,
    "gpsLocation": {
      "type": "Point",
      "coordinates": [19.188331, 50.837874]
    }
  },
  {
    "description": "01",
    "locationID": "6729b498-744c-4817-890f-8f5153827e3a",
    "name": "ŁOJKI",
    "officialNumber": "0000000000825",
    "stopRadius": 100,
    "gpsLocation": {
      "type": "Point",
      "coordinates": [19.0091666579247, 50.7918953148349]
    }
  },
  {
    "description": "03",
    "locationID": "da90d6f7-c63f-44fc-b856-11003c74c4ef",
    "name": "RAKÓW - DWORZEC PKP",
    "officialNumber": "0000000000196",
    "stopRadius": 50,
    "gpsLocation": null
  },
  {
    "description": "05",
    "locationID": "c2176174-3e46-4b45-841f-ed53ca4043ab",
    "name": "FIELDORFA-NILA",
    "officialNumber": "0000000000214",
    "stopRadius": 50,
    "gpsLocation": {
      "type": "Point",
      "coordinates": [19.132832, 50.839878]
    }
  },
  {
    "description": "04",
    "locationID": "a701bdda-2904-4871-8700-bc6e68ef8664",
    "name": "",
    "officialNumber": "0000000000424",
    "stopRadius": 0,
    "gpsLocation": {
      "type": "Point",
      "coordinates": [19.2019631713629, 50.818846023693]
    }
  },
  {
    "description": "02",
    "locationID": "00137bbc-9ab4-4e94-868a-084189d2dac9",
    "name": "BOHATERÓW KATYNIA",
    "officialNumber": "0000000000030",
    "stopRadius": 50,
    "gpsLocation": {
      "type": "Point",
      "coordinates": [19.1497814655304, 50.7702799580752]
    }
  },
  {
    "description": "00",
    "locationID": "4d14e9d8-796c-4674-887c-74cc02cd6fec",
    "name": "REJTANA",
    "officialNumber": "",
    "stopRadius": 50,
    "gpsLocation": {
      "type": "Point",
      "coordinates": [19.1549098491669, 50.78873050339]
    }
  },
  {
    "description": "02",
    "locationID": "8d37e795-2289-4bff-9df7-32e0585548c0",
    "name": "MAZURY I",
    "officialNumber": "0000000000717",
    "stopRadius": 50,
    "gpsLocation": {
      "type": "Point",
      "coordinates": [19.0871572494507, 50.7211934738406]
    }
  },
  {
    "description": "02",
    "locationID": "ab7475ae-ea07-4577-81df-7f903e4b2cf1",
    "name": "HALA POLONIA",
    "officialNumber": "0000000000066",
    "stopRadius": 50,
    "gpsLocation": null
  },
  {
    "description": "01",
    "locationID": "d38e1efc-6f12-4a85-93a5-ac86306edea4",
    "name": "URZĄD CELNY",
    "officialNumber": "0000000000015",
    "stopRadius": 50,
    "gpsLocation": {
      "type": "Point",
      "coordinates": [19.1622081398964, 50.8071042755058]
    }
  },
  {
    "description": "01",
    "locationID": "65e6b264-8830-4792-b6a3-ca71dcba8272",
    "name": "BUKOWA",
    "officialNumber": "0000000000461",
    "stopRadius": 50,
    "gpsLocation": {
      "type": "Point",
      "coordinates": [19.1298392415047, 50.7833990962682]
    }
  },
  {
    "description": "02",
    "locationID": "ad29755c-d779-44a9-82f8-9f6ff3ff691b",
    "name": "KIEDRZYŃSKA",
    "officialNumber": "0000000000301",
    "stopRadius": 50,
    "gpsLocation": {
      "type": "Point",
      "coordinates": [19.123325, 50.826753]
    }
  },
  {
    "description": "01",
    "locationID": "1ce90ff4-e93f-49d2-aecd-b709d41d94da",
    "name": "OLSZTYN - ŚW. PUSZCZY",
    "officialNumber": "0000000000754",
    "stopRadius": 50,
    "gpsLocation": {
      "type": "Point",
      "coordinates": [19.2658540606499, 50.7402455880156]
    }
  },
  {
    "description": "02",
    "locationID": "02011ef8-ebd4-4193-a348-bf18fd0dae31",
    "name": "OKRZEI",
    "officialNumber": "0000000000454",
    "stopRadius": 50,
    "gpsLocation": {
      "type": "Point",
      "coordinates": [19.1452378034592, 50.7809468518572]
    }
  },
  {
    "description": "01",
    "locationID": "9c89da55-594f-42ee-8dfa-ff296488799e",
    "name": "II URZĄD SKARBOWY",
    "officialNumber": "0000000000038",
    "stopRadius": 50,
    "gpsLocation": {
      "type": "Point",
      "coordinates": [19.1392242908478, 50.8055508033008]
    }
  },
  {
    "description": "02",
    "locationID": "7606dfe0-ee6a-45d5-a260-a1766d22f4cb",
    "name": "DOJAZDOWA",
    "officialNumber": "0000000000981",
    "stopRadius": 50,
    "gpsLocation": {
      "type": "Point",
      "coordinates": [19.1168922185898, 50.7872094864335]
    }
  },
  {
    "description": "01",
    "locationID": "7587817e-98d4-4853-8673-a7e5b32dbe25",
    "name": "ŚW. JADWIGI",
    "officialNumber": "0000000001233",
    "stopRadius": 50,
    "gpsLocation": {
      "type": "Point",
      "coordinates": [19.0792044997215, 50.80172156613]
    }
  },
  {
    "description": "01",
    "locationID": "3a08ebd7-1d4e-4270-af62-e23f70037893",
    "name": "ŻEROMSKIEGO",
    "officialNumber": "0000000000637",
    "stopRadius": 50,
    "gpsLocation": {
      "type": "Point",
      "coordinates": [19.1493107378483, 50.7919360075059]
    }
  },
  {
    "description": "03",
    "locationID": "44057fa8-6205-4577-86e5-27ca5b9a13f0",
    "name": "RONDO TRZECH KRZYŻY",
    "officialNumber": "0000000000520",
    "stopRadius": 50,
    "gpsLocation": {
      "type": "Point",
      "coordinates": [19.1299089789391, 50.8182321685914]
    }
  },
  {
    "description": "02",
    "locationID": "5a109c43-bea3-4e14-add2-6f1d7a0e72ee",
    "name": "OSIEDLE BRZOZOWY PARK",
    "officialNumber": "0000000001037",
    "stopRadius": 50,
    "gpsLocation": {
      "type": "Point",
      "coordinates": [19.133478, 50.860085]
    }
  },
  {
    "description": "02",
    "locationID": "4b6bcea6-5f18-4276-a3a8-6fa9f394160f",
    "name": "WIELKOBORSKA",
    "officialNumber": "0000000000608",
    "stopRadius": 50,
    "gpsLocation": {
      "type": "Point",
      "coordinates": [19.0351063013077, 50.8166697459783]
    }
  },
  {
    "description": "02",
    "locationID": "201b4786-414b-420a-aba9-09c4293ca9b1",
    "name": "MANGANOWA",
    "officialNumber": "0000000000397",
    "stopRadius": 50,
    "gpsLocation": {
      "type": "Point",
      "coordinates": [19.1548642516136, 50.8205536761487]
    }
  },
  {
    "description": "03",
    "locationID": "507c8788-7662-46e6-843e-0971fa623160",
    "name": "RZECZNA",
    "officialNumber": "0000000001057",
    "stopRadius": 50,
    "gpsLocation": {
      "type": "Point",
      "coordinates": [19.0752924978733, 50.7664851527844]
    }
  },
  {
    "description": "01",
    "locationID": "b6860622-ad14-4eb1-a2d1-7a0b1cefe720",
    "name": "WRZOSOWA - SABINOWSKA I",
    "officialNumber": "0000000000809",
    "stopRadius": 50,
    "gpsLocation": {
      "type": "Point",
      "coordinates": [19.1367325186729, 50.7438991022735]
    }
  },
  {
    "description": "01",
    "locationID": "63ed12b8-d7f4-4267-bb59-3c15c7e50cc2",
    "name": "ODRZYKOŃ",
    "officialNumber": "0000000000748",
    "stopRadius": 50,
    "gpsLocation": {
      "type": "Point",
      "coordinates": [19.2229869961739, 50.7602129558334]
    }
  },
  {
    "description": "02",
    "locationID": "11633de1-0dab-4deb-908b-95ea03efa8e6",
    "name": "MIRECKIEGO",
    "officialNumber": "0000000000418",
    "stopRadius": 50,
    "gpsLocation": {
      "type": "Point",
      "coordinates": [19.1521418094635, 50.7753262159768]
    }
  },
  {
    "description": "03",
    "locationID": "c9c3dd8e-b57e-443b-b7a1-10041eea7421",
    "name": "RAKOWSKA",
    "officialNumber": "0000000001183",
    "stopRadius": 50,
    "gpsLocation": {
      "type": "Point",
      "coordinates": [19.1539804637432, 50.7718787054194]
    }
  },
  {
    "description": "01",
    "locationID": "a145d7d3-6abf-4fd6-b667-331139828949",
    "name": "POCZESNA - OSP",
    "officialNumber": "0000000000777",
    "stopRadius": 100,
    "gpsLocation": {
      "type": "Point",
      "coordinates": [19.1552478075027, 50.7141152918283]
    }
  },
  {
    "description": "02",
    "locationID": "63d96d07-5611-4b36-8eb2-87b965da62ea",
    "name": "GNASZYN - DWORZEC PKP",
    "officialNumber": "0000000000229",
    "stopRadius": 50,
    "gpsLocation": {
      "type": "Point",
      "coordinates": [19.0283498167992, 50.7919004014207]
    }
  },
  {
    "description": "03",
    "locationID": "00187e50-51d0-4a88-bb7e-fa7a16ffec33",
    "name": "DĄBROWSKIEGO - SĄDY",
    "officialNumber": "0000000000932",
    "stopRadius": 50,
    "gpsLocation": {
      "type": "Point",
      "coordinates": [19.1133061051369, 50.8169103828013]
    }
  },
  {
    "description": "01",
    "locationID": "cb822f6c-9bcc-4fad-99ac-3e88788b36c1",
    "name": "ZAWODZIE - SZPITAL",
    "officialNumber": "0000000000020",
    "stopRadius": 50,
    "gpsLocation": null
  },
  {
    "description": "- granica- gm. POCZESNA - 03",
    "locationID": "401ad5b5-1deb-43ee-b4eb-587013c6ab7e",
    "name": "",
    "officialNumber": "0000000000211",
    "stopRadius": 50,
    "gpsLocation": {
      "type": "Point",
      "coordinates": [19.1565345972776, 50.7564504218511]
    }
  },
  {
    "description": "06",
    "locationID": "48cb3ffa-44e3-43ed-8665-859f0b53ea34",
    "name": "ESTAKADA",
    "officialNumber": "0000000001079",
    "stopRadius": 50,
    "gpsLocation": {
      "type": "Point",
      "coordinates": [19.1405573487282, 50.784696393473]
    }
  },
  {
    "description": "02",
    "locationID": "cb87a8da-df85-4750-87b7-b33e392b0857",
    "name": "BRZEZINY",
    "officialNumber": "0000000000683",
    "stopRadius": 50,
    "gpsLocation": {
      "type": "Point",
      "coordinates": [19.0937420725822, 50.7507784771158]
    }
  },
  {
    "description": "01",
    "locationID": "fcedfe02-4200-4a9c-9b99-240a29591406",
    "name": "AKADEMICKA",
    "officialNumber": "",
    "stopRadius": 50,
    "gpsLocation": {
      "type": "Point",
      "coordinates": [19.1158611111111, 50.8236111111111]
    }
  },
  {
    "description": "01",
    "locationID": "0d10b4d6-bbca-48b1-983d-f782af74d1ec",
    "name": "STRADOM",
    "officialNumber": "0000000000566",
    "stopRadius": 50,
    "gpsLocation": {
      "type": "Point",
      "coordinates": [19.1118764877319, 50.7979827141862]
    }
  },
  {
    "description": "01",
    "locationID": "528469f7-088e-4501-8361-3b032e30e9e6",
    "name": "WRZOSOWA - DŁUGA",
    "officialNumber": "0000000000804",
    "stopRadius": 50,
    "gpsLocation": {
      "type": "Point",
      "coordinates": [19.1411474347115, 50.7466053196371]
    }
  },
  {
    "description": "01",
    "locationID": "2478d2b6-3bcf-4dd5-a8c3-4b919b5321b5",
    "name": "OLSZTYN - RYNEK",
    "officialNumber": "0000000000758",
    "stopRadius": 50,
    "gpsLocation": {
      "type": "Point",
      "coordinates": [19.2686086893082, 50.7502405187752]
    }
  },
  {
    "description": "02",
    "locationID": "f56ec94c-4a9c-4186-8a17-76aa140c4ec8",
    "name": "DRZEWNA",
    "officialNumber": "0000000000195",
    "stopRadius": 50,
    "gpsLocation": {
      "type": "Point",
      "coordinates": [19.0175968408585, 50.7923369979734]
    }
  },
  {
    "description": "05",
    "locationID": "14c61ebb-a1b4-488b-825d-481301080e21",
    "name": "SPORTOWA",
    "officialNumber": "0000000001099",
    "stopRadius": 50,
    "gpsLocation": {
      "type": "Point",
      "coordinates": [19.1356998682022, 50.7733484869962]
    }
  },
  {
    "description": "03",
    "locationID": "141773ec-3e89-4646-93c6-ed257d142f92",
    "name": "",
    "officialNumber": "0000000001212",
    "stopRadius": 0,
    "gpsLocation": {
      "type": "Point",
      "coordinates": [19.1285839676857, 50.8119296256679]
    }
  },
  {
    "description": "01",
    "locationID": "f32f9de5-aa26-4a9c-9124-6c9c10e6304f",
    "name": "BISKUPICE III",
    "officialNumber": "0000000000681",
    "stopRadius": 50,
    "gpsLocation": {
      "type": "Point",
      "coordinates": [19.2811694741249, 50.7067336881207]
    }
  },
  {
    "description": "01",
    "locationID": "eb6bf9b3-12b8-462f-bcbf-6a7f7ddb2825",
    "name": "C.H.JAGIELLOŃCZYCY",
    "officialNumber": "0000000000158",
    "stopRadius": 50,
    "gpsLocation": {
      "type": "Point",
      "coordinates": [19.1435346007347, 50.7831074114175]
    }
  },
  {
    "description": "01",
    "locationID": "4771e9ac-3a66-4199-b47a-c980546d1e54",
    "name": "KIEDRZYŃSKA",
    "officialNumber": "0000000000300",
    "stopRadius": 50,
    "gpsLocation": {
      "type": "Point",
      "coordinates": [19.122069, 50.826534]
    }
  },
  {
    "description": "02",
    "locationID": "c7ecc016-8d86-4f4f-9784-5dae62b3eeee",
    "name": "MICHAŁÓW",
    "officialNumber": "0000000000718",
    "stopRadius": 50,
    "gpsLocation": {
      "type": "Point",
      "coordinates": [19.103969335556, 50.7092611605099]
    }
  },
  {
    "description": "01",
    "locationID": "9a7773da-0708-49a1-9294-169813094ea6",
    "name": "MELIORANTÓW",
    "officialNumber": "0000000000410",
    "stopRadius": 50,
    "gpsLocation": {
      "type": "Point",
      "coordinates": [19.1685837507248, 50.865441123269]
    }
  },
  {
    "description": "01",
    "locationID": "f4986e67-cff0-4f8d-9f09-377d94e62f93",
    "name": "FARADAYA",
    "officialNumber": "0000000000212",
    "stopRadius": 50,
    "gpsLocation": {
      "type": "Point",
      "coordinates": [19.143400490284, 50.8076432750675]
    }
  },
  {
    "description": "01",
    "locationID": "decd3ea9-bcf7-45e1-b66d-27321d0d4547",
    "name": "KUCELIN - RONDO",
    "officialNumber": "0000000001016",
    "stopRadius": 50,
    "gpsLocation": {
      "type": "Point",
      "coordinates": [19.177363961935, 50.7902006031822]
    }
  },
  {
    "description": "03",
    "locationID": "32cc48f5-0eed-4c7a-9bf0-b8027095641d",
    "name": "ŚW. KAZIMIERZA",
    "officialNumber": "0000000000579",
    "stopRadius": 50,
    "gpsLocation": {
      "type": "Point",
      "coordinates": [19.1021507978439, 50.8080144692628]
    }
  },
  {
    "description": "02",
    "locationID": "b36f5115-94a6-48ad-bfac-ce139c1f7ef0",
    "name": "WRZOSOWA - KŁADKA",
    "officialNumber": "0000000000808",
    "stopRadius": 50,
    "gpsLocation": {
      "type": "Point",
      "coordinates": [19.1541615128517, 50.7463795953504]
    }
  },
  {
    "description": "01",
    "locationID": "70d5dfee-7faa-4e71-84d9-7569df009a9f",
    "name": "PUSTA",
    "officialNumber": "0000000000009",
    "stopRadius": 50,
    "gpsLocation": {
      "type": "Point",
      "coordinates": [19.1389989852905, 50.7904447675288]
    }
  },
  {
    "description": "03",
    "locationID": "782578a5-8c32-4c29-8a8f-40d9ff34173f",
    "name": "ŚW. KRZYSZTOFA",
    "officialNumber": "0000000001018",
    "stopRadius": 50,
    "gpsLocation": {
      "type": "Point",
      "coordinates": [19.087578356266, 50.8233511935885]
    }
  },
  {
    "description": "02",
    "locationID": "5d1ebb40-6748-4c0c-8746-574a896b1403",
    "name": "BISKUPICE III",
    "officialNumber": "0000000000682",
    "stopRadius": 50,
    "gpsLocation": {
      "type": "Point",
      "coordinates": [19.2817005515099, 50.7064432238953]
    }
  },
  {
    "description": "01",
    "locationID": "87fc159d-9021-4698-82ee-1d26275f96da",
    "name": "HOENE-WROŃSKIEGO",
    "officialNumber": "0000000000246",
    "stopRadius": 50,
    "gpsLocation": {
      "type": "Point",
      "coordinates": [19.111625701189, 50.800048401176]
    }
  },
  {
    "description": "02",
    "locationID": "ced57f35-b2cb-4ac4-8ea3-b1de51b81fbe",
    "name": "WYCZERPY GÓRNE",
    "officialNumber": "0000000000626",
    "stopRadius": 50,
    "gpsLocation": {
      "type": "Point",
      "coordinates": [19.176234, 50.840381]
    }
  },
  {
    "description": "03",
    "locationID": "827d5fce-b035-40f4-9f21-170096f05c5c",
    "name": "",
    "officialNumber": "0000000001346",
    "stopRadius": 0,
    "gpsLocation": {
      "type": "Point",
      "coordinates": [19.0515723824501, 50.7967273218433]
    }
  },
  {
    "description": "02",
    "locationID": "79b44cb2-cb58-427b-9049-0689d8a320a8",
    "name": "BURSZTYNOWA I",
    "officialNumber": "0000000001327",
    "stopRadius": 50,
    "gpsLocation": {
      "type": "Point",
      "coordinates": [19.2144522070885, 50.8052770546185]
    }
  },
  {
    "description": "01",
    "locationID": "fbf0e28e-3950-409e-9143-b6d0831087e4",
    "name": "WITAMINOWA",
    "officialNumber": "0000000001059",
    "stopRadius": 50,
    "gpsLocation": {
      "type": "Point",
      "coordinates": [19.1172784566879, 50.7700568924309]
    }
  },
  {
    "description": "01",
    "locationID": "0261904f-73fe-4cd6-96c0-ad6346dfed40",
    "name": "CHŁODNA",
    "officialNumber": "0000000000161",
    "stopRadius": 50,
    "gpsLocation": {
      "type": "Point",
      "coordinates": [19.1594749689102, 50.8012808192694]
    }
  },
  {
    "description": "02",
    "locationID": "c0a09c95-1848-429f-93d4-5c3e32ae7ec5",
    "name": "RZĄSAWA",
    "officialNumber": "0000000000532",
    "stopRadius": 50,
    "gpsLocation": {
      "type": "Point",
      "coordinates": [19.169071, 50.871105]
    }
  },
  {
    "description": "01",
    "locationID": "6bc6b28e-6f26-4470-bbf4-ae137528220f",
    "name": "TEATR IM.ADAMA MICKIEWICZA",
    "officialNumber": "0000000000585",
    "stopRadius": 50,
    "gpsLocation": {
      "type": "Point",
      "coordinates": [19.1142033040524, 50.815992736434]
    }
  },
  {
    "description": "02",
    "locationID": "66eca471-2b2a-43bb-a190-9cef576f0dea",
    "name": "CMENTARZ MIRÓW",
    "officialNumber": "0000000000995",
    "stopRadius": 50,
    "gpsLocation": {
      "type": "Point",
      "coordinates": [19.2184272408485, 50.8209501848778]
    }
  },
  {
    "description": "05",
    "locationID": "f8fbfe32-55ce-4531-9502-c7337aaaf948",
    "name": "BUKOWA",
    "officialNumber": "0000000001097",
    "stopRadius": 50,
    "gpsLocation": {
      "type": "Point",
      "coordinates": [19.1278061270714, 50.7843911503102]
    }
  },
  {
    "description": "01",
    "locationID": "def40fb4-a781-4071-a7f4-a6a3c5039516",
    "name": "ARTYLERYJSKA",
    "officialNumber": "0000000000118",
    "stopRadius": 100,
    "gpsLocation": {
      "type": "Point",
      "coordinates": [19.0863, 50.7864]
    }
  },
  {
    "description": "02",
    "locationID": "5b35d9b6-1a0e-49de-8730-20f165bfc7fd",
    "name": "BERGER",
    "officialNumber": "0000000000019",
    "stopRadius": 50,
    "gpsLocation": {
      "type": "Point",
      "coordinates": [19.1921, 50.8009]
    }
  },
  {
    "description": "02",
    "locationID": "7cfff3d0-6ba1-499a-979a-942ef262d7e4",
    "name": "OLSZTYN - ŻWIRKI I WIGURY",
    "officialNumber": "0000000000999",
    "stopRadius": 50,
    "gpsLocation": {
      "type": "Point",
      "coordinates": [19.2597171664238, 50.7529896415788]
    }
  },
  {
    "description": "02",
    "locationID": "6b58d08e-150e-4dbf-90fb-6deeaf3e43de",
    "name": "KAWODRZA GÓRNA",
    "officialNumber": "0000000000295",
    "stopRadius": 50,
    "gpsLocation": {
      "type": "Point",
      "coordinates": [19.045247733593, 50.7840206163487]
    }
  },
  {
    "description": "01",
    "locationID": "513cee5c-7fac-44f2-9ede-14ae1458a9a6",
    "name": "POCZESNA - KOŚCIÓŁ",
    "officialNumber": "0000000000769",
    "stopRadius": 50,
    "gpsLocation": {
      "type": "Point",
      "coordinates": [19.1606846451759, 50.7169786199262]
    }
  },
  {
    "description": "01",
    "locationID": "0f0f7650-e40e-4fb9-bf48-0f9be29b1170",
    "name": "NARCYZOWA",
    "officialNumber": "0000000000434",
    "stopRadius": 50,
    "gpsLocation": {
      "type": "Point",
      "coordinates": [19.108998477459, 50.8508836448339]
    }
  },
  {
    "description": "02",
    "locationID": "f0cfcdac-1351-4c5b-ac2c-a97ce7a69e26",
    "name": "ZDROWA",
    "officialNumber": "0000000000652",
    "stopRadius": 50,
    "gpsLocation": {
      "type": "Point",
      "coordinates": [19.089557826519, 50.7615923344485]
    }
  },
  {
    "description": "03",
    "locationID": "3529c1af-410b-41b3-ac4e-f5d6eae6322a",
    "name": "LICEUM im. H. SIENKIEWICZA",
    "officialNumber": "",
    "stopRadius": 50,
    "gpsLocation": {
      "type": "Point",
      "coordinates": [19.1087651252747, 50.8123075649573]
    }
  },
  {
    "description": "01",
    "locationID": "9e27f3f2-7604-47d7-8b48-d6725c27f382",
    "name": "JESIENNA",
    "officialNumber": "0000000000001",
    "stopRadius": 50,
    "gpsLocation": {
      "type": "Point",
      "coordinates": [19.1413190960884, 50.7702680838851]
    }
  },
  {
    "description": "Strażacka",
    "locationID": "9f7f60c7-7f3e-4977-b334-4a87dbab1e0a",
    "name": "",
    "officialNumber": "0000000000675",
    "stopRadius": 0,
    "gpsLocation": {
      "type": "Point",
      "coordinates": [19.2862790822983, 50.7021726824923]
    }
  },
  {
    "description": "01",
    "locationID": "1b548939-15de-4ee4-b408-cdcc81565ac0",
    "name": "GMINNA",
    "officialNumber": "0000000000984",
    "stopRadius": 50,
    "gpsLocation": {
      "type": "Point",
      "coordinates": [19.0627464652061, 50.8301163923857]
    }
  },
  {
    "description": "02",
    "locationID": "f511d7e8-692d-443a-9cd4-8aee862fd4a8",
    "name": "ORLIK-RÜCKEMANNA",
    "officialNumber": "0000000000466",
    "stopRadius": 50,
    "gpsLocation": {
      "type": "Point",
      "coordinates": [19.1462221741676, 50.804576996513]
    }
  },
  {
    "description": "01",
    "locationID": "b2d7fc7e-fb4d-4575-9194-f0dc80c35e59",
    "name": "JASKRÓW - MIROWSKA",
    "officialNumber": "0000000001117",
    "stopRadius": 50,
    "gpsLocation": {
      "type": "Point",
      "coordinates": [19.202406, 50.836233]
    }
  },
  {
    "description": "01",
    "locationID": "b498c3b1-5d9e-443d-ae13-2b9dbc0837f0",
    "name": "PRZYJEMNA",
    "officialNumber": "0000000000502",
    "stopRadius": 50,
    "gpsLocation": {
      "type": "Point",
      "coordinates": [19.0464037656784, 50.7483924065884]
    }
  },
  {
    "description": "02",
    "locationID": "07f79dd3-7974-488f-90d4-eab681e3c0fa",
    "name": "I URZĄD SKARBOWY",
    "officialNumber": "0000000000108",
    "stopRadius": 50,
    "gpsLocation": {
      "type": "Point",
      "coordinates": [19.113861322403, 50.7985743728892]
    }
  },
  {
    "description": "02",
    "locationID": "f522a1ef-ee83-400c-be6d-5c5d22a7c9e0",
    "name": "KOPALNIANA",
    "officialNumber": "0000000000326",
    "stopRadius": 50,
    "gpsLocation": {
      "type": "Point",
      "coordinates": [19.0547829866409, 50.7621853020574]
    }
  },
  {
    "description": "04",
    "locationID": "50846e37-c8be-4553-9be3-931760a37734",
    "name": "GNASZYN DOSPEL",
    "officialNumber": "0000000000227",
    "stopRadius": 50,
    "gpsLocation": {
      "type": "Point",
      "coordinates": [19.052452147007, 50.7967993743079]
    }
  },
  {
    "description": "02",
    "locationID": "5178e5fb-5195-4321-8656-4fe37afbea1f",
    "name": "WRZOSOWA - DŁUGA",
    "officialNumber": "0000000000805",
    "stopRadius": 50,
    "gpsLocation": {
      "type": "Point",
      "coordinates": [19.1412734985352, 50.7468004938949]
    }
  },
  {
    "description": "Bursztynowa",
    "locationID": "a6f4a1ce-b6ff-46fd-a406-c86ad79951e0",
    "name": "",
    "officialNumber": "0000000000150",
    "stopRadius": 0,
    "gpsLocation": {
      "type": "Point",
      "coordinates": [19.2198474705219, 50.8031243001012]
    }
  },
  {
    "description": "01",
    "locationID": "58754972-ff0c-4a68-b9e6-636f3e133c41",
    "name": "BISKUPICE I",
    "officialNumber": "0000000000677",
    "stopRadius": 50,
    "gpsLocation": {
      "type": "Point",
      "coordinates": [19.2614981532097, 50.7134868986735]
    }
  },
  {
    "description": "04",
    "locationID": "16d36ab5-ae47-4b3a-ae70-9f1175c3cfc3",
    "name": "JESIENNA",
    "officialNumber": "0000000000962",
    "stopRadius": 50,
    "gpsLocation": {
      "type": "Point",
      "coordinates": [19.1403615474701, 50.7707150602443]
    }
  },
  {
    "description": "01",
    "locationID": "5ed97b5d-627e-4c19-9d83-562dd4eea37b",
    "name": "OLSZTYN - SOKOLE GÓRY",
    "officialNumber": "0000000001139",
    "stopRadius": 50,
    "gpsLocation": {
      "type": "Point",
      "coordinates": [19.2648455500603, 50.7308053867685]
    }
  },
  {
    "description": "01",
    "locationID": "c5f04e2d-df11-48e9-ba36-6de472b7cf95",
    "name": "FALISTA",
    "officialNumber": "0000000001351",
    "stopRadius": 50,
    "gpsLocation": {
      "type": "Point",
      "coordinates": [19.1893118619919, 50.8181482871434]
    }
  },
  {
    "description": "04",
    "locationID": "1385f53b-e609-483d-b77e-be9eca17c280",
    "name": "DĄBIE",
    "officialNumber": "0000000000179",
    "stopRadius": 50,
    "gpsLocation": {
      "type": "Point",
      "coordinates": [19.1600570082664, 50.7918029084296]
    }
  },
  {
    "description": "01",
    "locationID": "593afd91-92c9-4b8f-9844-0e858de30ae4",
    "name": "CMENTARNA",
    "officialNumber": "0000000000165",
    "stopRadius": 50,
    "gpsLocation": {
      "type": "Point",
      "coordinates": [19.1334387660027, 50.8233478048136]
    }
  },
  {
    "description": "01",
    "locationID": "3b996802-6369-4c2d-a05c-2dcecaa3ce7b",
    "name": "DOMY STUDENCKIE",
    "officialNumber": "0000000000193",
    "stopRadius": 50,
    "gpsLocation": {
      "type": "Point",
      "coordinates": [19.1104227304459, 50.8244050906713]
    }
  },
  {
    "description": "01",
    "locationID": "dc301ffb-f63f-40ea-9d13-1315c98450f0",
    "name": "MIRECKIEGO",
    "officialNumber": "0000000000417",
    "stopRadius": 50,
    "gpsLocation": {
      "type": "Point",
      "coordinates": [19.1511118412018, 50.7762641662659]
    }
  },
  {
    "description": "02",
    "locationID": "0e2b5e0d-c5c2-4127-b8b7-27be7d0e34eb",
    "name": "NIERADA - SZKOŁA",
    "officialNumber": "0000000000729",
    "stopRadius": 50,
    "gpsLocation": {
      "type": "Point",
      "coordinates": [19.0903437137604, 50.7095006518341]
    }
  },
  {
    "description": "01",
    "locationID": "7bf7e68b-ebb6-4039-a67d-111daf0a2dc0",
    "name": "SŁOWACKIEGO",
    "officialNumber": "0000000000557",
    "stopRadius": 50,
    "gpsLocation": {
      "type": "Point",
      "coordinates": [19.112151414156, 50.8028954581588]
    }
  },
  {
    "description": "02",
    "locationID": "80e1694c-500a-4eb5-8fdc-5238f7520976",
    "name": "CMENTARZ ŚW. ROCHA",
    "officialNumber": "0000000000175",
    "stopRadius": 100,
    "gpsLocation": {
      "type": "Point",
      "coordinates": [19.0865644812584, 50.8195437498177]
    }
  },
  {
    "description": "02",
    "locationID": "3471a7ee-4271-42ed-b13c-793931a7c506",
    "name": "KORCZAKA",
    "officialNumber": "0000000000331",
    "stopRadius": 50,
    "gpsLocation": {
      "type": "Point",
      "coordinates": [19.111479, 50.805478]
    }
  },
  {
    "description": "02",
    "locationID": "7e5310a1-3f16-40b5-9d58-688a5a158d1c",
    "name": "POLSKIEGO CZERWONEGO KRZYŻA ",
    "officialNumber": "0000000000079",
    "stopRadius": 50,
    "gpsLocation": {
      "type": "Point",
      "coordinates": [19.1157764196396, 50.8301917816395]
    }
  },
  {
    "description": "01",
    "locationID": "2ecc71f6-1ef8-4d50-9919-7d09ba49744b",
    "name": "CMENTARZ KOMUNALNY",
    "officialNumber": "0000000000167",
    "stopRadius": 50,
    "gpsLocation": {
      "type": "Point",
      "coordinates": [19.0459907054901, 50.830800820697]
    }
  },
  {
    "description": "01",
    "locationID": "5d2befa3-ed9a-48d9-8b6d-216612b5e1ed",
    "name": "OSTATNI GROSZ",
    "officialNumber": "0000000000060",
    "stopRadius": 50,
    "gpsLocation": {
      "type": "Point",
      "coordinates": [19.1273112595081, 50.7932254381714]
    }
  },
  {
    "description": "02",
    "locationID": "0b053d46-c40d-4add-b282-65a129ba17ab",
    "name": "JURAJSKA",
    "officialNumber": "0000000000282",
    "stopRadius": 50,
    "gpsLocation": {
      "type": "Point",
      "coordinates": [19.1434755921364, 50.8189015202024]
    }
  },
  {
    "description": "02",
    "locationID": "36bd82fe-9fdf-4dfa-a595-5772b1839583",
    "name": "LWOWSKA",
    "officialNumber": "0000000000368",
    "stopRadius": 100,
    "gpsLocation": {
      "type": "Point",
      "coordinates": [19.0581330657005, 50.8075229329373]
    }
  },
  {
    "description": "01",
    "locationID": "77c6afeb-5627-4c01-aa91-1e254a79b2a1",
    "name": "WYSZYŃSKIEGO",
    "officialNumber": "0000000000636",
    "stopRadius": 50,
    "gpsLocation": {
      "type": "Point",
      "coordinates": [19.0842014551163, 50.8137582810957]
    }
  },
  {
    "description": "01",
    "locationID": "01d97152-b6c8-4773-bde5-3b7d2bfae3c1",
    "name": "RYDZA-ŚMIGŁEGO",
    "officialNumber": "0000000000525",
    "stopRadius": 50,
    "gpsLocation": {
      "type": "Point",
      "coordinates": [19.1238605976105, 50.7809163251827]
    }
  },
  {
    "description": "02",
    "locationID": "8e7da7b6-18a5-46d0-89a2-b706124fe61d",
    "name": "RYNEK WIELUŃSKI",
    "officialNumber": "0000000000530",
    "stopRadius": 100,
    "gpsLocation": {
      "type": "Point",
      "coordinates": [19.0970224142075, 50.8166104338948]
    }
  },
  {
    "description": "04",
    "locationID": "165a7f70-a9fe-41e2-b95d-124828d1cc6e",
    "name": "",
    "officialNumber": "0000000001338",
    "stopRadius": 0,
    "gpsLocation": {
      "type": "Point",
      "coordinates": [19.2069835960865, 50.8150030477511]
    }
  },
  {
    "description": "01",
    "locationID": "aecc2e96-30ed-4808-9b11-fa7b0a7be419",
    "name": "GOMBROWICZA",
    "officialNumber": "0000000000231",
    "stopRadius": 100,
    "gpsLocation": {
      "type": "Point",
      "coordinates": [19.1343413293362, 50.8359239730523]
    }
  },
  {
    "description": "02",
    "locationID": "b8b15af8-1b55-49f2-bdeb-724e79c9d50d",
    "name": "DICKENSA",
    "officialNumber": "0000000000188",
    "stopRadius": 50,
    "gpsLocation": {
      "type": "Point",
      "coordinates": [19.1513478755951, 50.8340042861318]
    }
  },
  {
    "description": "01",
    "locationID": "969e050c-0dbc-4ae1-b64a-8b1883adb555",
    "name": "DĄBIE",
    "officialNumber": "0000000000063",
    "stopRadius": 50,
    "gpsLocation": {
      "type": "Point",
      "coordinates": [19.1609837114811, 50.7923912543475]
    }
  },
  {
    "description": "01",
    "locationID": "3a9e12a0-7322-4504-926b-0bd4c7357458",
    "name": "BIENIA",
    "officialNumber": "0000000000988",
    "stopRadius": 50,
    "gpsLocation": {
      "type": "Point",
      "coordinates": [19.1505807638168, 50.7713893333881]
    }
  },
  {
    "description": "01",
    "locationID": "d8bc3eae-996a-44b7-9f3b-fe57624fed1c",
    "name": "POCZESNA - POŁUDNIOWA I",
    "officialNumber": "0000000000780",
    "stopRadius": 50,
    "gpsLocation": {
      "type": "Point",
      "coordinates": [19.144494831562, 50.714930492016]
    }
  },
  {
    "description": "02",
    "locationID": "696c49fe-53cd-404c-8151-5c6e8fa81ed4",
    "name": "SŁOWACKIEGO",
    "officialNumber": "0000000000558",
    "stopRadius": 50,
    "gpsLocation": {
      "type": "Point",
      "coordinates": [19.1112086176872, 50.8025886386847]
    }
  },
  {
    "description": "04",
    "locationID": "bb7052cf-43d3-4355-a5dd-6efb7a9ca5fa",
    "name": "",
    "officialNumber": "0000000000442",
    "stopRadius": 0,
    "gpsLocation": {
      "type": "Point",
      "coordinates": [19.0885888785124, 50.8283832530447]
    }
  },
  {
    "description": "01",
    "locationID": "da26db15-cb7e-4bbb-8e54-44e32b41a587",
    "name": "DĄBROWSKIEGO - SĄDY",
    "officialNumber": "0000000000182",
    "stopRadius": 50,
    "gpsLocation": {
      "type": "Point",
      "coordinates": [19.1125577688217, 50.8164079249278]
    }
  },
  {
    "description": "02",
    "locationID": "2fc34ad9-f3eb-4612-9b8b-5ae3d0d2ed4d",
    "name": "KOMORNIKI",
    "officialNumber": "0000000001313",
    "stopRadius": 50,
    "gpsLocation": {
      "type": "Point",
      "coordinates": [19.1807998716831, 50.8194929140223]
    }
  },
  {
    "description": "02",
    "locationID": "6295eb6c-4662-45d2-8b5b-9370eafbe757",
    "name": "KUCELIN - HUTA",
    "officialNumber": "",
    "stopRadius": 50,
    "gpsLocation": null
  },
  {
    "description": "01",
    "locationID": "01f952e2-773b-4a38-befb-648d9a33c7b5",
    "name": "RATUSZ",
    "officialNumber": "0000000001406",
    "stopRadius": 50,
    "gpsLocation": {
      "type": "Point",
      "coordinates": [19.1131746768951, 50.8115211766299]
    }
  },
  {
    "description": "02",
    "locationID": "9f92c34e-bfcc-449d-a666-2bd86dca3fdb",
    "name": "ŁANOWA",
    "officialNumber": "0000000000569",
    "stopRadius": 50,
    "gpsLocation": {
      "type": "Point",
      "coordinates": [19.1642332077026, 50.7991728051606]
    }
  },
  {
    "description": "02",
    "locationID": "4784b7b2-0d2c-4661-acae-4f2814613c71",
    "name": "RUTKIEWICZ",
    "officialNumber": "0000000000524",
    "stopRadius": 50,
    "gpsLocation": {
      "type": "Point",
      "coordinates": [19.1262450814247, 50.7770392755461]
    }
  },
  {
    "description": "01",
    "locationID": "9eed801a-89cc-4021-9cd1-32a512c91894",
    "name": "WYGODA",
    "officialNumber": "0000000000629",
    "stopRadius": 50,
    "gpsLocation": {
      "type": "Point",
      "coordinates": [19.0394474565983, 50.7406113766162]
    }
  },
  {
    "description": "03",
    "locationID": "987be6d7-e448-48b9-a47c-5a9ca676d561",
    "name": "STRADOM - DWORZEC PKP",
    "officialNumber": "0000000000201",
    "stopRadius": 50,
    "gpsLocation": {
      "type": "Point",
      "coordinates": [19.1078907251358, 50.7979454173981]
    }
  },
  {
    "description": "02",
    "locationID": "a12e9963-dce1-4ef4-8ced-6fc21bb57b23",
    "name": "MAZURY",
    "officialNumber": "0000000000714",
    "stopRadius": 50,
    "gpsLocation": {
      "type": "Point",
      "coordinates": [19.088106751442, 50.717072023294]
    }
  },
  {
    "description": "01",
    "locationID": "4003c6f5-af16-4575-8322-8bde4e1e4971",
    "name": "KORFANTEGO",
    "officialNumber": "0000000001054",
    "stopRadius": 50,
    "gpsLocation": {
      "type": "Point",
      "coordinates": [19.1820994019508, 50.7858834312736]
    }
  },
  {
    "description": "04",
    "locationID": "2cb52498-f991-4ec2-bdaf-892b6ea9733b",
    "name": "BUKOWA",
    "officialNumber": "0000000001176",
    "stopRadius": 50,
    "gpsLocation": {
      "type": "Point",
      "coordinates": [19.1289809346199, 50.7833465252958]
    }
  },
  {
    "description": "02",
    "locationID": "98dbf5bd-5333-4089-ab45-f6bc9ec00acf",
    "name": "KUSIĘTA PRZEJAZD KOLEJOWY",
    "officialNumber": "0000000000708",
    "stopRadius": 50,
    "gpsLocation": {
      "type": "Point",
      "coordinates": [19.2737853527069, 50.7770731968842]
    }
  },
  {
    "description": "01",
    "locationID": "d69b1b10-af5a-4d11-bf29-204de654b6ed",
    "name": "HOTEL IBIS",
    "officialNumber": "0000000001393",
    "stopRadius": 50,
    "gpsLocation": {
      "type": "Point",
      "coordinates": [19.1347777777778, 50.818]
    }
  },
  {
    "description": "02",
    "locationID": "25fd5d6a-6409-4a19-9459-d8ccd87201ee",
    "name": "ZŁOTA GÓRA I",
    "officialNumber": "0000000001215",
    "stopRadius": 50,
    "gpsLocation": {
      "type": "Point",
      "coordinates": [19.1530872881413, 50.8148234102277]
    }
  },
  {
    "description": "01",
    "locationID": "781c2183-6b20-4da5-ad14-487af91ebf24",
    "name": "IKARA",
    "officialNumber": "0000000001205",
    "stopRadius": 50,
    "gpsLocation": {
      "type": "Point",
      "coordinates": [19.0583208203316, 50.832691417051]
    }
  },
  {
    "description": "02",
    "locationID": "a16c8d76-c494-41b3-8526-60c574f6ac86",
    "name": "MAKUSZYŃSKIEGO",
    "officialNumber": "0000000001076",
    "stopRadius": 50,
    "gpsLocation": {
      "type": "Point",
      "coordinates": [19.1469866037369, 50.8510851575801]
    }
  },
  {
    "description": "01",
    "locationID": "e8dc7cb3-5e51-4623-bcac-53ab30e15e7f",
    "name": "EKONOMICZNA",
    "officialNumber": "0000000001339",
    "stopRadius": 50,
    "gpsLocation": {
      "type": "Point",
      "coordinates": [19.026076644659, 50.7595665171763]
    }
  },
  {
    "description": "04",
    "locationID": "1188093c-cfb0-48f1-b845-69d0e0e813ce",
    "name": "II ALEJA NAJŚWIĘTSZEJ MARYI PANNY",
    "officialNumber": "0000000000255",
    "stopRadius": 50,
    "gpsLocation": {
      "type": "Point",
      "coordinates": [19.1195248067379, 50.811794041321]
    }
  },
  {
    "description": "01",
    "locationID": "640bbfa8-78e9-4da5-a5d9-7ce5672678a1",
    "name": "MŁYNARSKA",
    "officialNumber": "0000000001278",
    "stopRadius": 50,
    "gpsLocation": {
      "type": "Point",
      "coordinates": [19.1429337859154, 50.8297792569294]
    }
  },
  {
    "description": "01",
    "locationID": "f667ed93-2713-44ff-80f9-88e10ae7419d",
    "name": "BRONIEWSKIEGO",
    "officialNumber": "0000000000143",
    "stopRadius": 50,
    "gpsLocation": {
      "type": "Point",
      "coordinates": [19.1108, 50.8282]
    }
  },
  {
    "description": "01",
    "locationID": "73d22028-c324-4e62-bf36-919fb05a8668",
    "name": "NOWOBIALSKA",
    "officialNumber": "0000000001160",
    "stopRadius": 50,
    "gpsLocation": {
      "type": "Point",
      "coordinates": [19.0886123478413, 50.8283531808998]
    }
  },
  {
    "description": "01",
    "locationID": "042a34cb-1141-49d1-9e6c-2471b44a4917",
    "name": "NOWA WIEŚ II",
    "officialNumber": "0000000000742",
    "stopRadius": 50,
    "gpsLocation": {
      "type": "Point",
      "coordinates": [19.16843354702, 50.725321353703]
    }
  },
  {
    "description": "02",
    "locationID": "f5fe541d-62a6-42a8-a514-1ab7660bbd6f",
    "name": "ŻARECKA",
    "officialNumber": "0000000001187",
    "stopRadius": 50,
    "gpsLocation": {
      "type": "Point",
      "coordinates": [19.1572990268469, 50.7743127675336]
    }
  },
  {
    "description": "01",
    "locationID": "f5379774-b18e-4d1f-ade7-db266e912632",
    "name": "HUTA - WYDZIAŁ TRANSPORTU",
    "officialNumber": "0000000001290",
    "stopRadius": 50,
    "gpsLocation": {
      "type": "Point",
      "coordinates": [19.1912041604519, 50.7649523848787]
    }
  },
  {
    "description": "01",
    "locationID": "cefe806a-4d05-481a-a7cb-8c17515716e0",
    "name": "ZDROWA",
    "officialNumber": "0000000000651",
    "stopRadius": 50,
    "gpsLocation": {
      "type": "Point",
      "coordinates": [19.089195728302, 50.7614252163259]
    }
  },
  {
    "description": "06",
    "locationID": "8ff590f3-8b91-49d8-a17d-81fb56b294df",
    "name": "PLAC BIEGAŃSKIEGO",
    "officialNumber": "",
    "stopRadius": 50,
    "gpsLocation": null
  },
  {
    "description": "02",
    "locationID": "57b5a221-1244-42f5-b87c-96df54871f86",
    "name": "SKRAJNICA",
    "officialNumber": "0000000000791",
    "stopRadius": 50,
    "gpsLocation": {
      "type": "Point",
      "coordinates": [19.2411884665489, 50.742767858756]
    }
  },
  {
    "description": "03",
    "locationID": "4931477e-fcd7-46e6-97e5-c541f0361897",
    "name": "WYCZERPY DOLNE",
    "officialNumber": "0000000000621",
    "stopRadius": 50,
    "gpsLocation": {
      "type": "Point",
      "coordinates": [19.160995, 50.840085]
    }
  },
  {
    "description": "01",
    "locationID": "933e9cd1-93f6-4ad3-8ebb-c1b96b21a320",
    "name": "KASZTANOWA",
    "officialNumber": "0000000000287",
    "stopRadius": 50,
    "gpsLocation": {
      "type": "Point",
      "coordinates": [19.1348147392273, 50.7826681848662]
    }
  },
  {
    "description": "01",
    "locationID": "bad65d47-f5ba-476c-9795-44908bc57f73",
    "name": "WICHROWA",
    "officialNumber": "0000000000377",
    "stopRadius": 50,
    "gpsLocation": {
      "type": "Point",
      "coordinates": [19.0553811192513, 50.8029141045812]
    }
  },
  {
    "description": "01",
    "locationID": "8132fc13-93f9-4931-9283-f751582d430a",
    "name": "JAGIELLOŃSKA",
    "officialNumber": "0000000000272",
    "stopRadius": 50,
    "gpsLocation": {
      "type": "Point",
      "coordinates": [19.1093418002129, 50.7891137172486]
    }
  },
  {
    "description": "01",
    "locationID": "92e0b1e1-75fe-481d-91c0-ce70215aface",
    "name": "BIAŁOSTOCKA",
    "officialNumber": "0000000000132",
    "stopRadius": 50,
    "gpsLocation": {
      "type": "Point",
      "coordinates": [19.0546, 50.8213]
    }
  },
  {
    "description": "02",
    "locationID": "2a044366-d39d-47b4-ad11-ffdefd427611",
    "name": "CHŁODNA",
    "officialNumber": "0000000000162",
    "stopRadius": 50,
    "gpsLocation": {
      "type": "Point",
      "coordinates": [19.1595540940762, 50.8011630035391]
    }
  },
  {
    "description": "02",
    "locationID": "cc0d4422-7db2-48aa-a04a-b70ed72b0cc3",
    "name": "ODLEWNIKÓW",
    "officialNumber": "0000000000018",
    "stopRadius": 50,
    "gpsLocation": {
      "type": "Point",
      "coordinates": [19.1827967762947, 50.8043752829089]
    }
  },
  {
    "description": "01",
    "locationID": "c4150420-e772-4699-8e77-c143e1c18352",
    "name": "MICHAŁÓW",
    "officialNumber": "0000000000719",
    "stopRadius": 50,
    "gpsLocation": {
      "type": "Point",
      "coordinates": [19.1018557548523, 50.7093800570649]
    }
  },
  {
    "description": "01",
    "locationID": "90575694-8a22-46aa-b720-e71a4cc366de",
    "name": "WIEJSKA",
    "officialNumber": "0000000001314",
    "stopRadius": 50,
    "gpsLocation": {
      "type": "Point",
      "coordinates": [19.206810593605, 50.8151199812394]
    }
  },
  {
    "description": "06",
    "locationID": "8626da4c-701b-44bf-9efe-72ac3c768c1c",
    "name": "II ALEJA NAJŚWIĘTSZEJ MARYI PANNY",
    "officialNumber": "0000000000258",
    "stopRadius": 50,
    "gpsLocation": {
      "type": "Point",
      "coordinates": [19.1192807257175, 50.8118042101607]
    }
  },
  {
    "description": "05",
    "locationID": "23b25ddc-09d6-44d6-bf7d-a06cc354a891",
    "name": "D.H. SEZAM",
    "officialNumber": "0000000001198",
    "stopRadius": 50,
    "gpsLocation": {
      "type": "Point",
      "coordinates": [19.1395327448845, 50.7834092712883]
    }
  },
  {
    "description": "01",
    "locationID": "a657b038-efbe-4ae5-ae04-4d75b244807b",
    "name": "ŻYZNA",
    "officialNumber": "0000000000664",
    "stopRadius": 50,
    "gpsLocation": {
      "type": "Point",
      "coordinates": [19.0937367081642, 50.7560474267708]
    }
  },
  {
    "description": "Mirowska 01",
    "locationID": "f52afad1-6723-4989-9e25-66dc8fe4ec31",
    "name": "",
    "officialNumber": "0000000000429",
    "stopRadius": 0,
    "gpsLocation": {
      "type": "Point",
      "coordinates": [19.1721846163273, 50.8161300032424]
    }
  },
  {
    "description": "03",
    "locationID": "ef4449ac-3c24-4bad-95a7-bd233b8ffeb4",
    "name": "KUCELIN",
    "officialNumber": "0000000000351",
    "stopRadius": 60,
    "gpsLocation": {
      "type": "Point",
      "coordinates": [19.1729007661343, 50.7907253853937]
    }
  },
  {
    "description": "02",
    "locationID": "325bd73e-0222-4a0f-acfc-398aa78bbce5",
    "name": "KMICICA",
    "officialNumber": "0000000000930",
    "stopRadius": 50,
    "gpsLocation": {
      "type": "Point",
      "coordinates": [19.0903356671333, 50.7728769406392]
    }
  },
  {
    "description": "01",
    "locationID": "87933cc4-3afd-4138-9c7f-095bbf6ddf30",
    "name": "MANGANOWA",
    "officialNumber": "0000000000396",
    "stopRadius": 50,
    "gpsLocation": {
      "type": "Point",
      "coordinates": [19.1530215740204, 50.820533342277]
    }
  },
  {
    "description": "02",
    "locationID": "ce34e42b-8911-4360-89c5-864508cda3d2",
    "name": "GÓRY TOWARNE",
    "officialNumber": "0000000000712",
    "stopRadius": 50,
    "gpsLocation": {
      "type": "Point",
      "coordinates": [19.2745524644852, 50.7678830069048]
    }
  },
  {
    "description": "01",
    "locationID": "bd93f80b-337d-4f64-b283-61272c271bef",
    "name": "STADION ŻUŻLOWY",
    "officialNumber": "0000000000560",
    "stopRadius": 50,
    "gpsLocation": {
      "type": "Point",
      "coordinates": [19.1497868299484, 50.801405415438]
    }
  },
  {
    "description": "03",
    "locationID": "680740f8-1eff-4330-91cd-34b716c18608",
    "name": "KORDECKIEGO",
    "officialNumber": "0000000000334",
    "stopRadius": 50,
    "gpsLocation": {
      "type": "Point",
      "coordinates": [19.0828818082809, 50.8084331185375]
    }
  },
  {
    "description": "01",
    "locationID": "7b517237-20a9-4066-ba16-a78bcbd126de",
    "name": "OLSZTYŃSKA",
    "officialNumber": "0000000001242",
    "stopRadius": 50,
    "gpsLocation": {
      "type": "Point",
      "coordinates": [19.1557896137238, 50.8016639302383]
    }
  },
  {
    "description": "01",
    "locationID": "211f9943-0b23-4493-a977-7c2c5e70f406",
    "name": "HEKTAROWA - GÓRKA",
    "officialNumber": "0000000001308",
    "stopRadius": 50,
    "gpsLocation": {
      "type": "Point",
      "coordinates": [19.2117592692375, 50.8137370968968]
    }
  },
  {
    "description": "Niepodległości",
    "locationID": "d813c6df-a280-4e44-b3fc-860d9be6dfdb",
    "name": "",
    "officialNumber": "0000000001114",
    "stopRadius": 0,
    "gpsLocation": {
      "type": "Point",
      "coordinates": [19.1378711163998, 50.7863980875824]
    }
  },
  {
    "description": "02",
    "locationID": "68ce3ac2-4493-419b-a6be-db458fbcbd9a",
    "name": "KASZTANOWA",
    "officialNumber": "0000000000288",
    "stopRadius": 50,
    "gpsLocation": {
      "type": "Point",
      "coordinates": [19.1359895467758, 50.7825469304777]
    }
  },
  {
    "description": "01",
    "locationID": "d2470f93-40ab-4ef9-82f8-3f4ad77178ab",
    "name": "SŁOWIK - SZKOŁA",
    "officialNumber": "0000000001092",
    "stopRadius": 50,
    "gpsLocation": {
      "type": "Point",
      "coordinates": [19.177078306675, 50.7470499763267]
    }
  },
  {
    "description": "02",
    "locationID": "f87e0ae8-26af-4150-a870-717a2c8d83ef",
    "name": "GUARDIAN",
    "officialNumber": "0000000000240",
    "stopRadius": 50,
    "gpsLocation": {
      "type": "Point",
      "coordinates": [19.1880257427692, 50.779785976234]
    }
  },
  {
    "description": "Obrońców Westerplatte",
    "locationID": "c8c6acb7-0422-4981-ad9e-d59f0839d3a0",
    "name": "",
    "officialNumber": "0000000000473",
    "stopRadius": 0,
    "gpsLocation": {
      "type": "Point",
      "coordinates": [19.0898287296295, 50.8314682980476]
    }
  },
  {
    "description": "02",
    "locationID": "3de61ea1-5ef0-4a58-88f2-e3bcf1691621",
    "name": "DĄBROWSKIEGO - SĄDY",
    "officialNumber": "0000000000931",
    "stopRadius": 50,
    "gpsLocation": {
      "type": "Point",
      "coordinates": [19.1118791699409, 50.8171408507088]
    }
  },
  {
    "description": "01",
    "locationID": "979644f5-cfa5-428f-8f88-c2545ac8e310",
    "name": "WYCZERPY DOLNE",
    "officialNumber": "0000000000620",
    "stopRadius": 50,
    "gpsLocation": {
      "type": "Point",
      "coordinates": [19.15888, 50.839252]
    }
  },
  {
    "description": "03",
    "locationID": "89c35a90-a7ce-4189-9781-09c9cbf5c876",
    "name": "JASKRÓW - MIROWSKA",
    "officialNumber": "0000000001345",
    "stopRadius": 50,
    "gpsLocation": {
      "type": "Point",
      "coordinates": [19.203712, 50.835218]
    }
  },
  {
    "description": "01",
    "locationID": "77e87df0-b3ec-41df-bed3-76ccebefa81c",
    "name": "DOJAZDOWA",
    "officialNumber": "0000000000191",
    "stopRadius": 50,
    "gpsLocation": {
      "type": "Point",
      "coordinates": [19.1157361865044, 50.7875401465033]
    }
  },
  {
    "description": "02",
    "locationID": "9b17fcf8-4fbe-4219-a6e4-91e476f1b3aa",
    "name": "STROMA",
    "officialNumber": "0000000000037",
    "stopRadius": 50,
    "gpsLocation": {
      "type": "Point",
      "coordinates": [19.1349636018276, 50.7932432407127]
    }
  },
  {
    "description": "02",
    "locationID": "b059a4fd-178b-47b3-9124-6a0d1fdccf16",
    "name": "ŚW. ROCHA - SZKOŁA",
    "officialNumber": "0000000000517",
    "stopRadius": 50,
    "gpsLocation": {
      "type": "Point",
      "coordinates": [19.0655708312988, 50.8334588146883]
    }
  },
  {
    "description": "02",
    "locationID": "6498c688-9c02-462c-850e-9d920a4e6ef0",
    "name": "ŻYZNA",
    "officialNumber": "0000000000665",
    "stopRadius": 50,
    "gpsLocation": {
      "type": "Point",
      "coordinates": [19.0936589241028, 50.7554094148326]
    }
  },
  {
    "description": "01",
    "locationID": "93dd0004-1f0b-4210-90f2-ddf5f9a41c64",
    "name": "STROMA",
    "officialNumber": "0000000000010",
    "stopRadius": 50,
    "gpsLocation": {
      "type": "Point",
      "coordinates": [19.1344553232193, 50.7939782254279]
    }
  },
  {
    "description": "01",
    "locationID": "c8effddf-05df-43c5-855b-3ce08ca578e1",
    "name": "OSIEDLE BRZOZOWY PARK",
    "officialNumber": "0000000001036",
    "stopRadius": 50,
    "gpsLocation": {
      "type": "Point",
      "coordinates": [19.133047, 50.859625]
    }
  },
  {
    "description": "02",
    "locationID": "fee0a2fa-4421-4468-9320-e7c6aef7eec1",
    "name": "ZAJEZDNIA MPK",
    "officialNumber": "0000000001249",
    "stopRadius": 50,
    "gpsLocation": {
      "type": "Point",
      "coordinates": [19.1359962522984, 50.7870636561211]
    }
  },
  {
    "description": "01",
    "locationID": "50e1eb52-6911-45ed-be42-9f93d1529524",
    "name": "TATRZAŃSKA",
    "officialNumber": "0000000000583",
    "stopRadius": 50,
    "gpsLocation": {
      "type": "Point",
      "coordinates": [19.0449178218842, 50.8180288193664]
    }
  },
  {
    "description": "00",
    "locationID": "e2937b16-3462-423e-b1df-103f389af600",
    "name": "PIŁSUDSKIEGO",
    "officialNumber": "0000000000479",
    "stopRadius": 50,
    "gpsLocation": {
      "type": "Point",
      "coordinates": [19.1223210096359, 50.8075483573569]
    }
  },
  {
    "description": "03",
    "locationID": "ec7361ff-b601-4091-b324-25e238af88d0",
    "name": "RONDO MICKIEWICZA",
    "officialNumber": "0000000000509",
    "stopRadius": 50,
    "gpsLocation": {
      "type": "Point",
      "coordinates": [19.1178242862225, 50.8016876626729]
    }
  },
  {
    "description": "02",
    "locationID": "316dc7bd-fbc2-4075-999c-a1016c7eefb1",
    "name": "BISKUPICE - KOŚCIÓŁ",
    "officialNumber": "0000000001116",
    "stopRadius": 100,
    "gpsLocation": {
      "type": "Point",
      "coordinates": [19.285152554512, 50.7052558689633]
    }
  },
  {
    "description": "04",
    "locationID": "1c81a2ce-28c3-4dc8-9dd0-dee10bdde840",
    "name": "POCZESNA - ŁĄKOWA I",
    "officialNumber": "0000000000923",
    "stopRadius": 50,
    "gpsLocation": {
      "type": "Point",
      "coordinates": [19.125933945179, 50.7166389697469]
    }
  },
  {
    "description": "00",
    "locationID": "b293cb52-fa18-4b68-b7cc-5b8c6d69fbe5",
    "name": "MPK Zajezdnia Tramwajowa",
    "officialNumber": "0000000001145",
    "stopRadius": 50,
    "gpsLocation": {
      "type": "Point",
      "coordinates": [19.1354933381081, 50.7866414239304]
    }
  },
  {
    "description": "05",
    "locationID": "2b2636a6-be10-4ff9-ba44-80a65d5b9f5c",
    "name": "ALEJA JANA PAWŁA II",
    "officialNumber": "0000000000113",
    "stopRadius": 50,
    "gpsLocation": {
      "type": "Point",
      "coordinates": [19.1171389818192, 50.8174865504376]
    }
  },
  {
    "description": "02",
    "locationID": "38e97e1e-0473-493b-8d86-ca371285f2b6",
    "name": "KOŚCIELNA",
    "officialNumber": "0000000000347",
    "stopRadius": 50,
    "gpsLocation": {
      "type": "Point",
      "coordinates": [19.0970009565353, 50.7955897258561]
    }
  },
  {
    "description": "01",
    "locationID": "c2167fc4-7250-4822-97d6-ec480cfa5f44",
    "name": "OŁOWIANA",
    "officialNumber": "0000000000449",
    "stopRadius": 50,
    "gpsLocation": {
      "type": "Point",
      "coordinates": [19.1586622595787, 50.8209417125043]
    }
  },
  {
    "description": "Prosta",
    "locationID": "803097b7-23f2-4397-8f82-3088a5af53e9",
    "name": "",
    "officialNumber": "0000000000533",
    "stopRadius": 0,
    "gpsLocation": {
      "type": "Point",
      "coordinates": [19.1757908463478, 50.8830596142972]
    }
  },
  {
    "description": "01",
    "locationID": "19b1eba3-cba2-45f8-ae81-04cd19b1bffb",
    "name": "NIERADA",
    "officialNumber": "0000000000723",
    "stopRadius": 100,
    "gpsLocation": {
      "type": "Point",
      "coordinates": [19.0521839261055, 50.708656481935]
    }
  },
  {
    "description": "01",
    "locationID": "4de4ad1b-eac6-4cc7-aad2-94eda47a9128",
    "name": "LOTOSU",
    "officialNumber": "0000000000373",
    "stopRadius": 50,
    "gpsLocation": {
      "type": "Point",
      "coordinates": [19.050834774971, 50.7533086651276]
    }
  },
  {
    "description": "04",
    "locationID": "170521ff-b3ed-4fbf-9793-3f3e53e828f5",
    "name": "SŁOWIK - SPACEROWA",
    "officialNumber": "0000000001090",
    "stopRadius": 50,
    "gpsLocation": {
      "type": "Point",
      "coordinates": [19.1728377342224, 50.7461691446591]
    }
  },
  {
    "description": "01",
    "locationID": "042af0ec-3945-4382-9983-d01bcc7b55cb",
    "name": "ŻONKILOWA",
    "officialNumber": "0000000001040",
    "stopRadius": 50,
    "gpsLocation": {
      "type": "Point",
      "coordinates": [19.129777, 50.854337]
    }
  },
  {
    "description": "02",
    "locationID": "f0530835-0fe6-4311-95b6-cb877dd6de06",
    "name": "PRUSA",
    "officialNumber": "0000000000006",
    "stopRadius": 50,
    "gpsLocation": {
      "type": "Point",
      "coordinates": [19.154024720192, 50.7846980892628]
    }
  },
  {
    "description": "02",
    "locationID": "9915af66-c3fc-482e-9df1-c1ab9c2db7cb",
    "name": "HUTNIKÓW",
    "officialNumber": "0000000000253",
    "stopRadius": 50,
    "gpsLocation": {
      "type": "Point",
      "coordinates": [19.1569322347641, 50.7951802862466]
    }
  },
  {
    "description": "01",
    "locationID": "785259ea-de88-4bf4-b32d-2d84c73e8465",
    "name": "KMICICA",
    "officialNumber": "0000000000929",
    "stopRadius": 50,
    "gpsLocation": {
      "type": "Point",
      "coordinates": [19.0911403298378, 50.7730228151999]
    }
  },
  {
    "description": "02",
    "locationID": "8a993170-f777-49d2-8173-b695f9389569",
    "name": "SPORTOWA",
    "officialNumber": "0000000000110",
    "stopRadius": 50,
    "gpsLocation": {
      "type": "Point",
      "coordinates": [19.1362604498863, 50.7727005335859]
    }
  },
  {
    "description": "01",
    "locationID": "f79c13b0-9901-4cd0-89f2-f69b82aeb5a4",
    "name": "PLAC PAMIĘCI NARODOWEJ",
    "officialNumber": "0000000000471",
    "stopRadius": 50,
    "gpsLocation": {
      "type": "Point",
      "coordinates": [19.1137889027596, 50.8060262577262]
    }
  },
  {
    "description": "01",
    "locationID": "5f102778-c54a-4f82-bae3-9c6f1d83fd79",
    "name": "ANIOŁOWSKA",
    "officialNumber": "0000000000114",
    "stopRadius": 50,
    "gpsLocation": {
      "type": "Point",
      "coordinates": [19.1358, 50.8265]
    }
  },
  {
    "description": "03",
    "locationID": "162d2843-1932-4419-996a-9f5a460ec408",
    "name": "BRZOZOWA",
    "officialNumber": "0000000000992",
    "stopRadius": 50,
    "gpsLocation": {
      "type": "Point",
      "coordinates": [19.1443634033203, 50.7796867620062]
    }
  },
  {
    "description": "02",
    "locationID": "b7410b3b-44a0-4fb8-9bd4-a1c825c1f112",
    "name": "LEŚNA",
    "officialNumber": "0000000000364",
    "stopRadius": 50,
    "gpsLocation": {
      "type": "Point",
      "coordinates": [19.0259948372841, 50.7616313568683]
    }
  },
  {
    "description": "01",
    "locationID": "0f386e6f-f68a-4b41-a174-38b22336f6d1",
    "name": "MICHAŁOWSKIEGO",
    "officialNumber": "0000000000412",
    "stopRadius": 50,
    "gpsLocation": {
      "type": "Point",
      "coordinates": [19.125988, 50.844962]
    }
  },
  {
    "description": "03",
    "locationID": "4a51c632-5dec-4c7a-bb08-8fbb6256737f",
    "name": "IWASZKIEWICZA",
    "officialNumber": "0000000000596",
    "stopRadius": 50,
    "gpsLocation": {
      "type": "Point",
      "coordinates": [19.120945, 50.836869]
    }
  },
  {
    "description": "01",
    "locationID": "3e6add8d-617a-4a3d-b9b5-eda131b4191b",
    "name": "POCZESNA - KATOWICKA",
    "officialNumber": "0000000000767",
    "stopRadius": 50,
    "gpsLocation": {
      "type": "Point",
      "coordinates": [19.1492289304733, 50.715309215613]
    }
  },
  {
    "description": "01",
    "locationID": "25a16f30-7236-4f5e-bb31-a0715c6e30d8",
    "name": "RZĄSAWA",
    "officialNumber": "0000000000531",
    "stopRadius": 50,
    "gpsLocation": {
      "type": "Point",
      "coordinates": [19.168698, 50.871311]
    }
  },
  {
    "description": "01",
    "locationID": "d4e788b7-bc85-4ba7-a5ff-56d3568bedd0",
    "name": "KRAKOWSKA",
    "officialNumber": "0000000001020",
    "stopRadius": 50,
    "gpsLocation": {
      "type": "Point",
      "coordinates": [19.1306653618813, 50.801296075961]
    }
  },
  {
    "description": "01",
    "locationID": "b4cc2e58-b363-4e7e-9ac2-2fc8acdb0906",
    "name": "RZĄSAWA - DWORZEC PKP",
    "officialNumber": "0000000000534",
    "stopRadius": 100,
    "gpsLocation": {
      "type": "Point",
      "coordinates": [19.1756607592106, 50.8828540091505]
    }
  },
  {
    "description": "03",
    "locationID": "013a0934-5790-45af-b127-354b7c37d398",
    "name": "II ALEJA NAJŚWIĘTSZEJ MARYI PANNY",
    "officialNumber": "0000000000256",
    "stopRadius": 50,
    "gpsLocation": {
      "type": "Point",
      "coordinates": [19.1194617748261, 50.8120448720533]
    }
  },
  {
    "description": "01",
    "locationID": "84e339e9-7387-4877-97b8-956703a61b32",
    "name": "BISKUPICE",
    "officialNumber": "0000000000676",
    "stopRadius": 80,
    "gpsLocation": {
      "type": "Point",
      "coordinates": [19.2862871289253, 50.7020384785872]
    }
  },
  {
    "description": "03",
    "locationID": "740b0ec8-2b3b-43e8-b3cb-e558da7180ec",
    "name": "POCZESNA - POŁUDNIOWA",
    "officialNumber": "0000000000837",
    "stopRadius": 50,
    "gpsLocation": {
      "type": "Point",
      "coordinates": [19.1338934004307, 50.7139760270449]
    }
  },
  {
    "description": "01",
    "locationID": "44974852-4d74-473d-8326-3befe577435d",
    "name": "STADION CKS BUDOWLANI",
    "officialNumber": "0000000000559",
    "stopRadius": 50,
    "gpsLocation": {
      "type": "Point",
      "coordinates": [19.1119998693466, 50.8205316477873]
    }
  },
  {
    "description": "03",
    "locationID": "cad32ae7-c57b-4f9e-8e3d-6a2beabb36ad",
    "name": "ODRZYKOŃ",
    "officialNumber": "0000000001006",
    "stopRadius": 50,
    "gpsLocation": {
      "type": "Point",
      "coordinates": [19.2247277498245, 50.7596242049784]
    }
  },
  {
    "description": "02",
    "locationID": "313f8aab-f5da-41f3-807a-94f1496e57d8",
    "name": "PORAZIŃSKIEJ",
    "officialNumber": "0000000001075",
    "stopRadius": 50,
    "gpsLocation": {
      "type": "Point",
      "coordinates": [19.1543036699295, 50.845679572988]
    }
  },
  {
    "description": "04",
    "locationID": "60affe9b-198a-43a1-804b-80da9ca1f214",
    "name": "",
    "officialNumber": "0000000001334",
    "stopRadius": 0,
    "gpsLocation": {
      "type": "Point",
      "coordinates": [19.2207500338554, 50.8123456976754]
    }
  },
  {
    "description": "02",
    "locationID": "b3d8b496-8510-44ed-95d3-2523e4d87b66",
    "name": "ZIELNA",
    "officialNumber": "0000000000648",
    "stopRadius": 50,
    "gpsLocation": {
      "type": "Point",
      "coordinates": [19.1683584451675, 50.8597443029244]
    }
  },
  {
    "description": "01",
    "locationID": "ccbafd91-843c-4070-aa74-f480f9c0bdfc",
    "name": "BOHATERÓW KATYNIA",
    "officialNumber": "0000000000003",
    "stopRadius": 50,
    "gpsLocation": {
      "type": "Point",
      "coordinates": [19.1516402363777, 50.7709347301724]
    }
  },
  {
    "description": "02",
    "locationID": "59fba1c9-6fa6-413a-b6e9-6c6e41d83987",
    "name": "SŁOWIK - RÓWNOLEGŁA",
    "officialNumber": "0000000001103",
    "stopRadius": 50,
    "gpsLocation": {
      "type": "Point",
      "coordinates": [19.1773089766502, 50.7421941644272]
    }
  },
  {
    "description": "01",
    "locationID": "4a720e17-5f3e-4012-aa2e-4d06f9aa97af",
    "name": "KUCELIN",
    "officialNumber": "0000000000075",
    "stopRadius": 80,
    "gpsLocation": {
      "type": "Point",
      "coordinates": [19.1730362176895, 50.7903108164132]
    }
  },
  {
    "description": "01",
    "locationID": "0035d235-2560-47d9-873a-9c39738a0a2b",
    "name": "OLEŃKI",
    "officialNumber": "0000000000459",
    "stopRadius": 50,
    "gpsLocation": {
      "type": "Point",
      "coordinates": [19.0921890735626, 50.8095958251836]
    }
  },
  {
    "description": "02",
    "locationID": "26aafdec-3b47-4763-8517-a67a460a76fa",
    "name": "POCZESNA - POŁUDNIOWA I",
    "officialNumber": "0000000000781",
    "stopRadius": 50,
    "gpsLocation": {
      "type": "Point",
      "coordinates": [19.1450929641724, 50.7148812407404]
    }
  },